{
  "type": "FeatureCollection",
  "features": [
    {
      "type": "Feature",
      "properties": {
        "name": "Zorlu Center DC",
        "id": 1,
        "icon": "stationIcon",
        "address": "Uygur Sokağı, Beşiktaş"
      },
      "geometry": { "type": "Point", "coordinates": [29.0178, 41.06432] }
    },
    {
      "type": "Feature",
      "properties": {
        "name": "Migros Ataşehir",
        "id": 2,
        "icon": "stationIcon",
        "address": "Migros Ticaret Genel Müdürlüğü, Ataşehir Blv. No:6"
      },
      "geometry": { "type": "Point", "coordinates": [29.126572, 40.991752] }
    },
    {
      "type": "Feature",
      "properties": {
        "name": "Lukoil Esenyurt",
        "id": 3,
        "icon": "stationIcon",
        "address": "Lukoil Kayikci Petrol"
      },
      "geometry": { "type": "Point", "coordinates": [28.676835, 41.019524] }
    },
    {
      "type": "Feature",
      "properties": {
        "name": "Finanskent Alibeyköy",
        "id": 4,
        "icon": "stationIcon",
        "address": "Onur Market"
      },
      "geometry": { "type": "Point", "coordinates": [28.937366, 41.090802] }
    },
    {
      "type": "Feature",
      "properties": {
        "name": "Bolu Highway Outlet",
        "id": 5,
        "icon": "stationIcon",
        "address": "Watsons, İstanbul - Ankara Otoyolu Elmalık Mevkii"
      },
      "geometry": { "type": "Point", "coordinates": [31.46605, 40.722713] }
    },
    {
      "type": "Feature",
      "properties": {
        "name": "Susurluk Festiva Outlet DC",
        "id": 6,
        "icon": "stationIcon",
        "address": "Tommy Hilfiger, Festiva Outlet Susurluk Yolu, Susurluk"
      },
      "geometry": { "type": "Point", "coordinates": [28.142802, 39.842749] }
    },
    {
      "type": "Feature",
      "properties": {
        "name": "Oksijen O3 DC",
        "id": 7,
        "icon": "stationIcon",
        "address": "50 735. Sokak, Dilovasi, Kocaeli"
      },
      "geometry": { "type": "Point", "coordinates": [29.520049, 40.77294] }
    },
    {
      "type": "Feature",
      "properties": {
        "name": "Oksijen O37 DC İzmir Yönü",
        "id": 8,
        "icon": "stationIcon",
        "address": "Gebze - Orhangazi Otoyolu, 16800, Orhangazi"
      },
      "geometry": { "type": "Point", "coordinates": [29.341545, 40.524455] }
    },
    {
      "type": "Feature",
      "properties": {
        "name": "Oksijen O68 DC İstanbul Yönü",
        "id": 9,
        "icon": "stationIcon",
        "address": "İstanbul-Bursa-İzmir Otoyolu, 16600, Gemlik"
      },
      "geometry": { "type": "Point", "coordinates": [29.141383, 40.39015] }
    },
    {
      "type": "Feature",
      "properties": {
        "name": "Afyon Kolaylı DC",
        "id": 10,
        "icon": "stationIcon",
        "address": "D300, 03032, Afyonkarahisar, Afyonkarahisar"
      },
      "geometry": { "type": "Point", "coordinates": [30.456831, 38.790064] }
    },
    {
      "type": "Feature",
      "properties": {
        "name": "Bozüyük Sarar Outlet DC",
        "id": 11,
        "icon": "stationIcon",
        "address": "Kigili, Bozuyuk Sarar Outler, Bozüyük, Bilecik 11302"
      },
      "geometry": { "type": "Point", "coordinates": [30.013697, 39.916342] }
    },
    {
      "type": "Feature",
      "properties": {
        "name": "Uşak Festiva Outlet DC",
        "id": 12,
        "icon": "stationIcon",
        "address": "FESTİVA AMBAR, Sarayaltı Mah., Usak, Uşak 64200"
      },
      "geometry": { "type": "Point", "coordinates": [29.441225, 38.677614] }
    },
    {
      "type": "Feature",
      "properties": {
        "name": "Manisa Zorpet",
        "id": 13,
        "icon": "stationIcon",
        "address": "5305. Sokak, 45030, Manisa, Manisa"
      },
      "geometry": { "type": "Point", "coordinates": [27.380495, 38.613981] }
    },
    {
      "type": "Feature",
      "properties": {
        "name": "Gaziemir VsOutlet",
        "id": 14,
        "icon": "stationIcon",
        "address": "Lezzeti Ala Restaurant, Akçay Cad. N:176/1, Gaziemir, İzmir 35410"
      },
      "geometry": { "type": "Point", "coordinates": [27.134919, 38.330854] }
    },
    {
      "type": "Feature",
      "properties": {
        "name": "Suresto Salihli",
        "id": 15,
        "icon": "stationIcon",
        "address": "İzmir-Uşak Yolu, 45300, Manisa, Manisa"
      },
      "geometry": { "type": "Point", "coordinates": [28.112253, 38.476979] }
    },
    {
      "type": "Feature",
      "properties": {
        "name": "Eskişehir Sarar",
        "id": 16,
        "icon": "stationIcon",
        "address": "Çarşı Sokak, 26180, Eskisehir, Eskişehir"
      },
      "geometry": { "type": "Point", "coordinates": [30.43587, 39.800056] }
    },
    {
      "type": "Feature",
      "properties": {
        "name": "Tepebaşı Belediye Açık Otopark",
        "id": 17,
        "icon": "stationIcon",
        "address": "Figür Doğaltaş Merkez Ofis, hoşnudiye mah 732.cad no38/30, Eskisehir, Eskişehir 26130"
      },
      "geometry": { "type": "Point", "coordinates": [30.502476, 39.783509] }
    },
    {
      "type": "Feature",
      "properties": {
        "name": "Zorlu Center Kapalı Otopark - 1",
        "id": 18,
        "icon": "stationIcon",
        "address": "10 Nisbetiye Caddesi, 34330, Beşiktaş"
      },
      "geometry": { "type": "Point", "coordinates": [29.016, 41.07422] }
    },
    {
      "type": "Feature",
      "properties": {
        "name": "Zorlu Center Kapalı Otopark - 2",
        "id": 19,
        "icon": "stationIcon",
        "address": "Mustafa İzzet Efendi Sokağı, 34347, Beşiktaş"
      },
      "geometry": { "type": "Point", "coordinates": [29.0167, 41.05421] }
    },
    {
      "type": "Feature",
      "properties": {
        "name": "Akhisar Novada DC",
        "id": 20,
        "icon": "stationIcon",
        "address": "Novada Avm, 45200, Akhisar, Manisa"
      },
      "geometry": { "type": "Point", "coordinates": [27.833491, 38.942979] }
    },
    {
      "type": "Feature",
      "properties": {
        "name": "Isparta Centrum Garden DC",
        "id": 21,
        "icon": "stationIcon",
        "address": "Pehlivan Oto Yikama, Isparta, Isparta 32200"
      },
      "geometry": { "type": "Point", "coordinates": [30.564396, 37.782429] }
    },
    {
      "type": "Feature",
      "properties": {
        "name": "Akrones Hotel ",
        "id": 22,
        "icon": "stationIcon",
        "address": "Kocatepe Balo Salonu, Kütahya Karayolu 10. Km, Afyonkarahisar, Afyonkarahisar 03032"
      },
      "geometry": { "type": "Point", "coordinates": [30.45991, 38.789877] }
    },
    {
      "type": "Feature",
      "properties": {
        "name": "Milas Pomelon DC",
        "id": 23,
        "icon": "stationIcon",
        "address": "Pomelon Avm Battal Bey Çiğ Köfte, Pomelon, Milas, Muğla 48200"
      },
      "geometry": { "type": "Point", "coordinates": [27.78691, 37.306804] }
    },
    {
      "type": "Feature",
      "properties": {
        "name": "Muğla Rüyapark DC",
        "id": 24,
        "icon": "stationIcon",
        "address": "Mutlu Patiler Petshop, Rüya Park Avm Otoparkı, Muğla, Muğla 48050"
      },
      "geometry": { "type": "Point", "coordinates": [28.369293, 37.193037] }
    },
    {
      "type": "Feature",
      "properties": {
        "name": "Didim D-Marin",
        "id": 25,
        "icon": "stationIcon",
        "address": "D-Marin Gümrüklü Saha (Hudut Kapısı), Yenihisar, Aydın 09270"
      },
      "geometry": { "type": "Point", "coordinates": [27.261919, 37.340667] }
    },
    {
      "type": "Feature",
      "properties": {
        "name": "Bodrum Hilton",
        "id": 26,
        "icon": "stationIcon",
        "address": "16, Hilton Bodrum Türkbükü, Bodrum, Muğla 48400"
      },
      "geometry": { "type": "Point", "coordinates": [27.406693, 37.129257] }
    },
    {
      "type": "Feature",
      "properties": {
        "name": "Turgutreis D-Marin",
        "id": 27,
        "icon": "stationIcon",
        "address": "Yelken Cafe, Balıkçı Barınağı No:11, Turgutreis, Bodrum, Muğla 48400"
      },
      "geometry": { "type": "Point", "coordinates": [27.256538, 37.004898] }
    },
    {
      "type": "Feature",
      "properties": {
        "name": "Göcek D-Marin",
        "id": 28,
        "icon": "stationIcon",
        "address": "D-Marin Göcek, Fethiye, Muğla 48300"
      },
      "geometry": { "type": "Point", "coordinates": [28.943235, 36.745945] }
    },
    {
      "type": "Feature",
      "properties": {
        "name": "Antalya Terracity",
        "id": 29,
        "icon": "stationIcon",
        "address": "Intimissimi, Fener, Tekellioglu Cd. No:55, Muratpasa, Muratpasa, Antalya 07160"
      },
      "geometry": { "type": "Point", "coordinates": [30.757235, 36.852428] }
    },
    {
      "type": "Feature",
      "properties": {
        "name": "Oksijen O14 İzmir Yönü",
        "id": 30,
        "icon": "stationIcon",
        "address": "Menemenci Alaattin, Oksijen O14, Altinova, Yalova 77702"
      },
      "geometry": { "type": "Point", "coordinates": [29.468162, 40.684838] }
    },
    {
      "type": "Feature",
      "properties": {
        "name": "Oksijen O14 İstanbul Yönü",
        "id": 31,
        "icon": "stationIcon",
        "address": "Oksijen O14 Altınova, İstanbul - Bursa - İzmir Otoyolu 14. Km, Altinova, Yalova 77702"
      },
      "geometry": { "type": "Point", "coordinates": [29.467719, 40.681831] }
    },
    {
      "type": "Feature",
      "properties": {
        "name": "Oksijen O37 İstanbul Yönü",
        "id": 32,
        "icon": "stationIcon",
        "address": "Eatstop, Orhangazi Oxygen AVM, Orhangazi 16800"
      },
      "geometry": { "type": "Point", "coordinates": [29.343737, 40.523872] }
    },
    {
      "type": "Feature",
      "properties": {
        "name": "Oksijen O68 İzmir Yönü",
        "id": 33,
        "icon": "stationIcon",
        "address": "O68 (Oksijen) Gemlik Otoyol Hizmet Tesisi Servis Yolu, 16600, Gemlik"
      },
      "geometry": { "type": "Point", "coordinates": [29.139685, 40.389286] }
    },
    {
      "type": "Feature",
      "properties": {
        "name": "Bursa Ibis Hotel",
        "id": 34,
        "icon": "stationIcon",
        "address": "Mor Çilek Düğün Salonu 16090"
      },
      "geometry": { "type": "Point", "coordinates": [29.066887, 40.232723] }
    },
    {
      "type": "Feature",
      "properties": {
        "name": "Adalya Dinlenme Tesisleri",
        "id": 35,
        "icon": "stationIcon",
        "address": "Afyonkarahisar - Burdur Yolu, 03502, Sandikli, Afyonkarahisar"
      },
      "geometry": { "type": "Point", "coordinates": [30.220861, 38.523146] }
    },
    {
      "type": "Feature",
      "properties": {
        "name": "NG Afyon Otel",
        "id": 36,
        "icon": "stationIcon",
        "address": "Yasemin Patisserie, Afyonkarahisar, Afyonkarahisar 03032"
      },
      "geometry": { "type": "Point", "coordinates": [30.477908, 38.784239] }
    },
    {
      "type": "Feature",
      "properties": {
        "name": "Bolu Abant Palace Otel",
        "id": 37,
        "icon": "stationIcon",
        "address": "Abant Palace Otel Odası, Mudurnu 14802"
      },
      "geometry": { "type": "Point", "coordinates": [31.275312, 40.611067] }
    },
    {
      "type": "Feature",
      "properties": {
        "name": "Ramada Plaza İzmit ",
        "id": 38,
        "icon": "stationIcon",
        "address": "Ramada Plaza Pool, İzmit, Kocaeli, Kocaeli 41050"
      },
      "geometry": { "type": "Point", "coordinates": [29.970548, 40.769871] }
    },
    {
      "type": "Feature",
      "properties": {
        "name": "NG Sapanca",
        "id": 39,
        "icon": "stationIcon",
        "address": "Lobby, Güral Sapanca Hotel, Sapanca, Sakarya 54600"
      },
      "geometry": { "type": "Point", "coordinates": [30.213175, 40.690569] }
    },
    {
      "type": "Feature",
      "properties": {
        "name": "Yalova Atakent Hastanesi",
        "id": 40,
        "icon": "stationIcon",
        "address": "Rahmi Üstel Caddesi, 77202, Yalova, Yalova"
      },
      "geometry": { "type": "Point", "coordinates": [29.258707, 40.643292] }
    },
    {
      "type": "Feature",
      "properties": {
        "name": "Novotel Karaköy",
        "id": 41,
        "icon": "stationIcon",
        "address": "57 Kemankeş Caddesi, 34425, Beyoğlu"
      },
      "geometry": { "type": "Point", "coordinates": [28.979982, 41.024665] }
    },
    {
      "type": "Feature",
      "properties": {
        "name": "Oksijen O86 İzmir Yönü",
        "id": 42,
        "icon": "stationIcon",
        "address": "İstanbul-Bursa-İzmir Otoyolu, 16165"
      },
      "geometry": { "type": "Point", "coordinates": [28.995027, 40.282717] }
    },
    {
      "type": "Feature",
      "properties": {
        "name": "Emporium Denizli",
        "id": 43,
        "icon": "stationIcon",
        "address": "Emporium Outlet, Denizli - Antalya Yolu 28. km, Tavas, Denizli 20500"
      },
      "geometry": { "type": "Point", "coordinates": [29.214987, 37.635798] }
    },
    {
      "type": "Feature",
      "properties": {
        "name": "Petra Roasting",
        "id": 44,
        "icon": "stationIcon",
        "address": "Petra Roasting Co., Hoşsohbet Sok. Panorama Selenium Residence Gayrettepe, Istanbul, 34349"
      },
      "geometry": { "type": "Point", "coordinates": [29.009349, 41.062117] }
    },
    {
      "type": "Feature",
      "properties": {
        "name": "Radisson Çeşme",
        "id": 45,
        "icon": "stationIcon",
        "address": "Radisson Blu Resort & Spa Cesme, Altinyunus Mah 3435 Sok No. 25, Çesme, İzmir 35930"
      },
      "geometry": { "type": "Point", "coordinates": [26.345417, 38.316069] }
    },
    {
      "type": "Feature",
      "properties": {
        "name": "Ceshme Plus",
        "id": 46,
        "icon": "stationIcon",
        "address": "Matiz Balık, Ceshme Plus +, Çesme, İzmir 35930"
      },
      "geometry": { "type": "Point", "coordinates": [26.383241, 38.313319] }
    },
    {
      "type": "Feature",
      "properties": {
        "name": "Novotel Zeytinburnu",
        "id": 47,
        "icon": "stationIcon",
        "address": "56 Kennedy Caddesi, 34020, Zeytinburnu"
      },
      "geometry": { "type": "Point", "coordinates": [28.902432, 40.980327] }
    },
    {
      "type": "Feature",
      "properties": {
        "name": "Metrocity AVM",
        "id": 48,
        "icon": "stationIcon",
        "address": "E-Bebek, Esentepe Mah. Büyükdere Cad. No:171, Istanbul, 34394"
      },
      "geometry": { "type": "Point", "coordinates": [29.0122268, 41.075816] }
    },
    {
      "type": "Feature",
      "properties": {
        "name": "Tuzla Ibis Hotel",
        "id": 49,
        "icon": "stationIcon",
        "address": "Selin Sk., 34947, Tuzla"
      },
      "geometry": { "type": "Point", "coordinates": [29.296301, 40.849373] }
    },
    {
      "type": "Feature",
      "properties": {
        "name": "Titanic Business Kartal",
        "id": 50,
        "icon": "stationIcon",
        "address": "Cut'e Kuaför, Titanic Business Hotel Kartal, Istanbul, 34880"
      },
      "geometry": { "type": "Point", "coordinates": [29.201405, 40.910991] }
    },
    {
      "type": "Feature",
      "properties": {
        "name": "Esenyurt Ibis Hotel",
        "id": 51,
        "icon": "stationIcon",
        "address": "2102. Sokak, 34515, Esenyurt"
      },
      "geometry": { "type": "Point", "coordinates": [28.664388, 41.007392] }
    },
    {
      "type": "Feature",
      "properties": {
        "name": "Edirne Erasta AVM",
        "id": 52,
        "icon": "stationIcon",
        "address": "Tavuk Dünyası, Erasta Edirne, Edirne, Edirne 22100"
      },
      "geometry": { "type": "Point", "coordinates": [26.570998, 41.666789] }
    },
    {
      "type": "Feature",
      "properties": {
        "name": "Symbol AVM Kocaeli",
        "id": 53,
        "icon": "stationIcon",
        "address": "Cinemarine, Symbol Kocaeli, Basiskele"
      },
      "geometry": { "type": "Point", "coordinates": [29.979932, 40.758005] }
    },
    {
      "type": "Feature",
      "properties": {
        "name": "Eskişehir Anemon Otel",
        "id": 54,
        "icon": "stationIcon",
        "address": "Hilton Garden, Eskisehir, Eskişehir 26180"
      },
      "geometry": { "type": "Point", "coordinates": [30.476918, 39.7819] }
    },
    {
      "type": "Feature",
      "properties": {
        "name": "Tekpark AVM Eskişehir",
        "id": 55,
        "icon": "stationIcon",
        "address": "EGM Gayrimenkul & Yatırım Danışmanlığı, BATIKENT, Eskisehir, Eskişehir 26180"
      },
      "geometry": { "type": "Point", "coordinates": [30.456497, 39.792994] }
    },
    {
      "type": "Feature",
      "properties": {
        "name": "Viaport Marina Tuzla",
        "id": 56,
        "icon": "stationIcon",
        "address": "Viaport Marina Bowling, Viaport Marina Outlet, Istanbul Türkiye"
      },
      "geometry": { "type": "Point", "coordinates": [29.320235, 40.817754] }
    },
    {
      "type": "Feature",
      "properties": {
        "name": "Kale Outlet",
        "id": 57,
        "icon": "stationIcon",
        "address": "Kale Center AVM (Bursa Kebap Evi )"
      },
      "geometry": { "type": "Point", "coordinates": [28.878466, 41.015939] }
    },
    {
      "type": "Feature",
      "properties": {
        "name": "Antares AVM",
        "id": 58,
        "icon": "stationIcon",
        "address": "Media Markt, Halil Sezai Erkut Caddesi, Ankara"
      },
      "geometry": { "type": "Point", "coordinates": [32.820781, 39.970014] }
    },
    {
      "type": "Feature",
      "properties": {
        "name": "Anemon Ankara Otel",
        "id": 59,
        "icon": "stationIcon",
        "address": "Ankara Dedeman Otel, Ankara, Ankara 06680"
      },
      "geometry": { "type": "Point", "coordinates": [32.856486, 39.913941] }
    },
    {
      "type": "Feature",
      "properties": {
        "name": "Hotel Ibis Ankara Airport",
        "id": 60,
        "icon": "stationIcon",
        "address": "Özal Bulvarı, 06750, Akyurt, Ankara"
      },
      "geometry": { "type": "Point", "coordinates": [32.980588, 40.098745] }
    },
    {
      "type": "Feature",
      "properties": {
        "name": "Gimart Outlet",
        "id": 61,
        "icon": "stationIcon",
        "address": "Pizza'cim, Istanbul Yolu GIMART AVM, Ankara, Ankara 06105"
      },
      "geometry": { "type": "Point", "coordinates": [32.769463, 39.946783] }
    },
    {
      "type": "Feature",
      "properties": {
        "name": "Ali Babacan Tekstil",
        "id": 62,
        "icon": "stationIcon",
        "address": "Ali Babacan A.Ş, Ankara, Ankara 06820"
      },
      "geometry": { "type": "Point", "coordinates": [32.658243, 39.978203] }
    },
    {
      "type": "Feature",
      "properties": {
        "name": "Sultandağı Yaşar Petrol",
        "id": 63,
        "icon": "stationIcon",
        "address": "İstasyon Caddesi, 03900, Sultandagi, Afyonkarahisar"
      },
      "geometry": { "type": "Point", "coordinates": [31.238187, 38.535744] }
    },
    {
      "type": "Feature",
      "properties": {
        "name": "Afyon Etçibaba Restaurant",
        "id": 64,
        "icon": "stationIcon",
        "address": "Etci Baba, Afyon Izmir Karayolu 5. Km, Afyonkarahisar, Afyonkarahisar 03032"
      },
      "geometry": { "type": "Point", "coordinates": [30.479437, 38.783727] }
    },
    {
      "type": "Feature",
      "properties": {
        "name": "Uşak Hamamboğazı Tesisleri ",
        "id": 65,
        "icon": "stationIcon",
        "address": "Hamamboğazı Termal Tesisleri, Banaz, Uşak 64502"
      },
      "geometry": { "type": "Point", "coordinates": [29.823183, 38.777691] }
    },
    {
      "type": "Feature",
      "properties": {
        "name": "Hilton İzmir",
        "id": 66,
        "icon": "stationIcon",
        "address": "Hilton Crew Lounge, Izmir, İzmir 35210"
      },
      "geometry": { "type": "Point", "coordinates": [27.137008, 38.425589] }
    },
    {
      "type": "Feature",
      "properties": {
        "name": "Yalım Park Garden Uşak",
        "id": 67,
        "icon": "stationIcon",
        "address": "Shell, Sivasli, Sivasli, Uşak 64800"
      },
      "geometry": { "type": "Point", "coordinates": [29.675433, 38.508291] }
    },
    {
      "type": "Feature",
      "properties": {
        "name": "Karun AVM Uşak",
        "id": 68,
        "icon": "stationIcon",
        "address": "Relax Sport Center, Cumhuriyet Mah. Atatürk Meydanı No:50, Usak, Uşak 64200"
      },
      "geometry": { "type": "Point", "coordinates": [29.400941, 38.667767] }
    },
    {
      "type": "Feature",
      "properties": {
        "name": "Ulubey Kanyonu",
        "id": 69,
        "icon": "stationIcon",
        "address": "Park Kanyon Cam Teras, Karahallı - Ulubey Yolu, Ulubey, Uşak 64900"
      },
      "geometry": { "type": "Point", "coordinates": [29.304161, 38.418954] }
    },
    {
      "type": "Feature",
      "properties": {
        "name": "Anemon Manisa Hotel",
        "id": 70,
        "icon": "stationIcon",
        "address": "Anemon Gym, Anemon Otel, Manisa, Manisa 45030"
      },
      "geometry": { "type": "Point", "coordinates": [27.361957, 38.606844] }
    },
    {
      "type": "Feature",
      "properties": {
        "name": "Manisa 45 Park AVM",
        "id": 71,
        "icon": "stationIcon",
        "address": "Migros, 45 Park, Manisa, Manisa 45030"
      },
      "geometry": { "type": "Point", "coordinates": [27.38735, 38.62941] }
    },
    {
      "type": "Feature",
      "properties": {
        "name": "Menemen Novada",
        "id": 72,
        "icon": "stationIcon",
        "address": "U.S. Polo Assn., Yıldırım Mah. İzmir Çanakkale Asfaltı No: 46 Mağaza No: GF23 Menemen İzmir, Menemen, İzmir 35660"
      },
      "geometry": { "type": "Point", "coordinates": [27.014875, 38.678759] }
    },
    {
      "type": "Feature",
      "properties": {
        "name": "Anemon Çiğli Hotel",
        "id": 73,
        "icon": "stationIcon",
        "address": "Kapalı Otopark Yolu, 35620, Izmir, İzmir"
      },
      "geometry": { "type": "Point", "coordinates": [27.065569, 38.491357] }
    },
    {
      "type": "Feature",
      "properties": {
        "name": "Anemon Fuar Hotel",
        "id": 74,
        "icon": "stationIcon",
        "address": "5 1373. Sokak, 35210, Izmir, İzmir"
      },
      "geometry": { "type": "Point", "coordinates": [27.140664, 38.426321] }
    },
    {
      "type": "Feature",
      "properties": {
        "name": "Sheraton Çeşme Hotel",
        "id": 75,
        "icon": "stationIcon",
        "address": "Sheraton Çeşme Miniclub, Çesme, İzmir 35930"
      },
      "geometry": { "type": "Point", "coordinates": [26.368383, 38.306509] }
    },
    {
      "type": "Feature",
      "properties": {
        "name": "Çeşme Ilıca Hotel",
        "id": 76,
        "icon": "stationIcon",
        "address": "Ilıca Hotel Thermal Bath, Ilıca, Çesme, İzmir 35930"
      },
      "geometry": { "type": "Point", "coordinates": [26.347779, 38.315502] }
    },
    {
      "type": "Feature",
      "properties": {
        "name": "Novada Söke AVM",
        "id": 77,
        "icon": "stationIcon",
        "address": "Söke Asri Mezarlık, Söke, Aydın 09200"
      },
      "geometry": { "type": "Point", "coordinates": [27.425421, 37.767783] }
    },
    {
      "type": "Feature",
      "properties": {
        "name": "Key Museum Torbalı",
        "id": 78,
        "icon": "stationIcon",
        "address": "Özgörkey Klasik Araba Müzesi, Torbali, İzmir 35860"
      },
      "geometry": { "type": "Point", "coordinates": [27.349601, 38.201515] }
    },
    {
      "type": "Feature",
      "properties": {
        "name": "Bamboo Nazilli AVM",
        "id": 79,
        "icon": "stationIcon",
        "address": "U.S. Polo Assn., Isabeyli Mah. 11. Cadde No: 34-5/E Nazilli, Mağaza No: Z1&Z2, Nazilli, Aydın 09800"
      },
      "geometry": { "type": "Point", "coordinates": [28.278837, 37.897811] }
    },
    {
      "type": "Feature",
      "properties": {
        "name": "Bilişim Vadisi",
        "id": 80,
        "icon": "stationIcon",
        "address": "Nikriz, Bilişim Vadisi Teknoloji Geliştirme Bölgesi, Muallimköy Mh Deniz Cd. No 143/5/3 Gebze,Kocaeli, Gebze, Kocaeli 41400"
      },
      "geometry": { "type": "Point", "coordinates": [29.510723, 40.792305] }
    },
    {
      "type": "Feature",
      "properties": {
        "name": "Iyaş Bulvar AVM",
        "id": 81,
        "icon": "stationIcon",
        "address": "HG Garage, Çünür Mah. 102. Cad. No:167, Isparta, Isparta 32200"
      },
      "geometry": { "type": "Point", "coordinates": [30.538185, 37.798294] }
    },
    {
      "type": "Feature",
      "properties": {
        "name": "Anemon Denizli Hotel",
        "id": 82,
        "icon": "stationIcon",
        "address": "Anemon Altın Salon, Anemon otel, Denizli, Denizli 20030"
      },
      "geometry": { "type": "Point", "coordinates": [29.048893, 37.828274] }
    },
    {
      "type": "Feature",
      "properties": {
        "name": "Ette Osmanlı Tesisleri - 1",
        "id": 83,
        "icon": "stationIcon",
        "address": "D200, 26004, Sultandere, Eskişehir"
      },
      "geometry": { "type": "Point", "coordinates": [30.822543, 39.627044] }
    },
    {
      "type": "Feature",
      "properties": {
        "name": "Ette Osmanlı Tesisleri - 2",
        "id": 84,
        "icon": "stationIcon",
        "address": "BulePet Osmanlı Tesisleri 2, Mahmudiye, Eskişehir 26800"
      },
      "geometry": { "type": "Point", "coordinates": [30.898291, 39.587669] }
    },
    {
      "type": "Feature",
      "properties": {
        "name": "Gediz Petrol Kütahya",
        "id": 85,
        "icon": "stationIcon",
        "address": "Gediz Dinlenme Tesisleri, Gediz, Gediz, Kütahya 43602"
      },
      "geometry": { "type": "Point", "coordinates": [29.314806, 38.937065] }
    },
    {
      "type": "Feature",
      "properties": {
        "name": "Güral Porselen Kütahya",
        "id": 86,
        "icon": "stationIcon",
        "address": "Güral Porselen, Kütahya Çevre Yolu, Kütahya, Kütahya 43020"
      },
      "geometry": { "type": "Point", "coordinates": [30.034765, 39.394741] }
    },
    {
      "type": "Feature",
      "properties": {
        "name": "Ataköy Marina",
        "id": 87,
        "icon": "stationIcon",
        "address": "TAYK, Istanbul, 34158"
      },
      "geometry": { "type": "Point", "coordinates": [28.874643, 40.972488] }
    },
    {
      "type": "Feature",
      "properties": {
        "name": "Park & Go Otopark",
        "id": 88,
        "icon": "stationIcon",
        "address": "Işıklar İstanbul Caddesi, 34076, Eyüpsultan"
      },
      "geometry": { "type": "Point", "coordinates": [28.809211, 41.238006] }
    },
    {
      "type": "Feature",
      "properties": {
        "name": "Cennet Vadisi Bilecik",
        "id": 89,
        "icon": "stationIcon",
        "address": "Cennet Vadisi, Eskişehir - Bilecik Yolu, Bilecik, Bilecik 11230"
      },
      "geometry": { "type": "Point", "coordinates": [30.017132, 40.071676] }
    },
    {
      "type": "Feature",
      "properties": {
        "name": "Bursa As Outlet",
        "id": 90,
        "icon": "stationIcon",
        "address": "AS Outlet Yönetim Ofisi, As Outlet 16110"
      },
      "geometry": { "type": "Point", "coordinates": [29.062149, 40.25499] }
    },
    {
      "type": "Feature",
      "properties": {
        "name": "Bayzade Tesisleri Ankara Yönü",
        "id": 91,
        "icon": "stationIcon",
        "address": "Anadolu Otoyolu, 14020, Karacasu"
      },
      "geometry": { "type": "Point", "coordinates": [31.638645, 40.765449] }
    },
    {
      "type": "Feature",
      "properties": {
        "name": "Bayzade Tesisleri İstanbul Yönü",
        "id": 92,
        "icon": "stationIcon",
        "address": "Park Shop Ulusoy"
      },
      "geometry": { "type": "Point", "coordinates": [31.638795, 40.766278] }
    },
    {
      "type": "Feature",
      "properties": {
        "name": "Zorlu Garand Hotel",
        "id": 93,
        "icon": "stationIcon",
        "address": "VESTEL, Kahramanmaraş Caddesi Zorlu Grand Otel, Trabzon, Trabzon 61050"
      },
      "geometry": { "type": "Point", "coordinates": [39.729072, 41.005508] }
    },
    {
      "type": "Feature",
      "properties": {
        "name": "Casa Lavanda Hotel",
        "id": 94,
        "icon": "stationIcon",
        "address": "Darphin Spa, Istanbul, 34983"
      },
      "geometry": { "type": "Point", "coordinates": [29.512177, 41.086833] }
    },
    {
      "type": "Feature",
      "properties": {
        "name": "Novotel Trabzon",
        "id": 95,
        "icon": "stationIcon",
        "address": "Novotel Sahil, Yomra, Trabzon 61250"
      },
      "geometry": { "type": "Point", "coordinates": [39.839251, 40.968922] }
    },
    {
      "type": "Feature",
      "properties": {
        "name": "Anemon Ordu Hotel",
        "id": 96,
        "icon": "stationIcon",
        "address": "Atatürk Bulvar, 52100, Altinordu, Ordu"
      },
      "geometry": { "type": "Point", "coordinates": [37.875606, 40.996301] }
    },
    {
      "type": "Feature",
      "properties": {
        "name": "Yeşilyurt AVM Kapalı Otopark",
        "id": 97,
        "icon": "stationIcon",
        "address": "Yeşilyurt Stefanel, Atakum, Samsun 55200"
      },
      "geometry": { "type": "Point", "coordinates": [36.291561, 41.330758] }
    },
    {
      "type": "Feature",
      "properties": {
        "name": "Bafra Çelikpark AVM",
        "id": 98,
        "icon": "stationIcon",
        "address": "Kristal Sinemaları, Emirefendi Mahallesi Samsun Caddesi Çelik Park Avm Kat/4, Bafra, Samsun 55400"
      },
      "geometry": { "type": "Point", "coordinates": [35.910098, 41.557103] }
    },
    {
      "type": "Feature",
      "properties": {
        "name": "TP Bağdat Caddesi",
        "id": 99,
        "icon": "stationIcon",
        "address": "2 Hacı Mehmet Sokağı, 34726, Kadıköy"
      },
      "geometry": { "type": "Point", "coordinates": [29.050604, 40.975819] }
    },
    {
      "type": "Feature",
      "properties": {
        "name": "Safranpark AVM",
        "id": 100,
        "icon": "stationIcon",
        "address": "Safranpark Flo Outlet Mağazası, Safranpark, Safranbolu, Karabük 78602"
      },
      "geometry": { "type": "Point", "coordinates": [32.76074, 41.217407] }
    },
    {
      "type": "Feature",
      "properties": {
        "name": "Hilton Safranbolu",
        "id": 101,
        "icon": "stationIcon",
        "address": "Hilton Garden Inn, Yeni Mahalle, Safranbolu, Karabük 78600"
      },
      "geometry": { "type": "Point", "coordinates": [32.674868, 41.258492] }
    },
    {
      "type": "Feature",
      "properties": {
        "name": "Barutçuoğlu AVM",
        "id": 102,
        "icon": "stationIcon",
        "address": "Sas Erkek Kuaförü, Kastamonu, Kastamonu 37200"
      },
      "geometry": { "type": "Point", "coordinates": [33.780161, 41.382788] }
    },
    {
      "type": "Feature",
      "properties": {
        "name": "Orion AVM Çorlu",
        "id": 103,
        "icon": "stationIcon",
        "address": "Personel Kafe, Alipaşa Mah. Salih Omurtak Cad. No:9, Çorlu, Tekirdağ 59850"
      },
      "geometry": { "type": "Point", "coordinates": [27.83448, 41.150188] }
    },
    {
      "type": "Feature",
      "properties": {
        "name": "14 Burda AVM Bolu",
        "id": 104,
        "icon": "stationIcon",
        "address": "H&M, Paşaköy Mah. D-100 Karayolu Cad. No:8-16 14100"
      },
      "geometry": { "type": "Point", "coordinates": [31.562367, 40.732163] }
    },
    {
      "type": "Feature",
      "properties": {
        "name": "Hampton by Hilton Bolu",
        "id": 105,
        "icon": "stationIcon",
        "address": "73 Eski Istanbul Caddesi, 14100, Sandallar"
      },
      "geometry": { "type": "Point", "coordinates": [31.569125, 40.73119] }
    },
    {
      "type": "Feature",
      "properties": {
        "name": "Pakt Plus AVM Biga",
        "id": 106,
        "icon": "stationIcon",
        "address": "Pakt Plus AVM Yiyecek Içecek Salonu, Pakt Plus, Biga, Çanakkale 17200"
      },
      "geometry": { "type": "Point", "coordinates": [27.24782, 40.225876] }
    },
    {
      "type": "Feature",
      "properties": {
        "name": "Parkshop Outlet Kuzey",
        "id": 107,
        "icon": "stationIcon",
        "address": "Cızbız Köfte, Hendek, Sakarya 54300"
      },
      "geometry": { "type": "Point", "coordinates": [30.69903, 40.753602] }
    },
    {
      "type": "Feature",
      "properties": {
        "name": "Parkshop Outlet Güney",
        "id": 108,
        "icon": "stationIcon",
        "address": "Parkshop Stadium, Tem Otoyolu Kuzey Hamitli Mev.parshop Avm.noa-02, Hendek, Sakarya 54300"
      },
      "geometry": { "type": "Point", "coordinates": [30.694685, 40.751043] }
    },
    {
      "type": "Feature",
      "properties": {
        "name": "Cassaba Modern",
        "id": 109,
        "icon": "stationIcon",
        "address": "Pizza Il Forno, Cassaba Modern, Eskisehir, Eskişehir 26130"
      },
      "geometry": { "type": "Point", "coordinates": [30.49963, 39.783611] }
    },
    {
      "type": "Feature",
      "properties": {
        "name": "17 Burda AVM Çanakkale",
        "id": 110,
        "icon": "stationIcon",
        "address": "Nepall Outdoor, Barbaros Mah. Atatürk Cad. No:207, Çanakkale, Çanakkale 17020"
      },
      "geometry": { "type": "Point", "coordinates": [26.410754, 40.125192] }
    },
    {
      "type": "Feature",
      "properties": {
        "name": "Sur Yapı Marka AVM Bursa",
        "id": 111,
        "icon": "stationIcon",
        "address": "Pull & Bear, Sur Yapı Marka 16265"
      },
      "geometry": { "type": "Point", "coordinates": [28.996601, 40.206982] }
    },
    {
      "type": "Feature",
      "properties": {
        "name": "10 Burda AVM Balıkesir",
        "id": 112,
        "icon": "stationIcon",
        "address": "207. Sokak, 10100, Balikesir, Balıkesir"
      },
      "geometry": { "type": "Point", "coordinates": [27.89169, 39.613693] }
    },
    {
      "type": "Feature",
      "properties": {
        "name": "Hotel La Bella Soma",
        "id": 113,
        "icon": "stationIcon",
        "address": "Otel La Bella, zafer mah. Bergama cad. 14, Turgutalp, Manisa 45540"
      },
      "geometry": { "type": "Point", "coordinates": [27.587262, 39.190591] }
    },
    {
      "type": "Feature",
      "properties": {
        "name": "Hotel La Bella Bergama",
        "id": 114,
        "icon": "stationIcon",
        "address": "La Bella Hotel İç Yolu, 35700, Bergama, İzmir"
      },
      "geometry": { "type": "Point", "coordinates": [27.135195, 39.092084] }
    },
    {
      "type": "Feature",
      "properties": {
        "name": "Kasaba AVM Menemen",
        "id": 115,
        "icon": "stationIcon",
        "address": "İzmir Çanakkale Yolu, 35660, Menemen, İzmir"
      },
      "geometry": { "type": "Point", "coordinates": [27.015749, 38.676969] }
    },
    {
      "type": "Feature",
      "properties": {
        "name": "Folkart Towers B Blok",
        "id": 116,
        "icon": "stationIcon",
        "address": "ONNO7 Dijital Reklam Ajansı, Manas Bulvarı Adalet Mahallesi, Izmir, İzmir 35530"
      },
      "geometry": { "type": "Point", "coordinates": [27.176744, 38.453224] }
    },
    {
      "type": "Feature",
      "properties": {
        "name": "Liv Hospital Ulus ",
        "id": 117,
        "icon": "stationIcon",
        "address": "Prof. Dr. Hakan Oruçkaptan Toplantı Salonu, Ahmet Adnan Saygun Cad. Canan Sk No:5 Ulus"
      },
      "geometry": { "type": "Point", "coordinates": [29.028558, 41.060906] }
    },
    {
      "type": "Feature",
      "properties": {
        "name": "Mistral İzmir - Açık Otopark",
        "id": 118,
        "icon": "stationIcon",
        "address": "Mobilex Yazılım, Mistral Tower, Izmir, İzmir 35170"
      },
      "geometry": { "type": "Point", "coordinates": [27.180165, 38.448053] }
    },
    {
      "type": "Feature",
      "properties": {
        "name": "Mistral İzmir - Kapalı Otopark",
        "id": 119,
        "icon": "stationIcon",
        "address": "Mistral İzmir, Çınarlı Mah. Ankara Cad. No:15, Izmir, İzmir 35170"
      },
      "geometry": { "type": "Point", "coordinates": [27.178996, 38.447908] }
    },
    {
      "type": "Feature",
      "properties": {
        "name": "Hitit Hotel Restaurant Selçuk",
        "id": 120,
        "icon": "stationIcon",
        "address": "Hitit Restaurant, Selçuk, İzmir 35920"
      },
      "geometry": { "type": "Point", "coordinates": [27.3726, 37.9627] }
    },
    {
      "type": "Feature",
      "properties": {
        "name": "Hotel La Bella Alaşehir",
        "id": 121,
        "icon": "stationIcon",
        "address": "Hotel La Bella, Alasehir, Manisa 45600"
      },
      "geometry": { "type": "Point", "coordinates": [28.5379, 38.3454] }
    },
    {
      "type": "Feature",
      "properties": {
        "name": "Volkan Arpacı Ocakbaşı Kartal",
        "id": 122,
        "icon": "stationIcon",
        "address": "Sentor Brasserie, Kordonboyu Mahallesi, Turgut Özal BulvarıNo 53, Kartal, Istanbul, 34860"
      },
      "geometry": { "type": "Point", "coordinates": [29.1704, 40.8937] }
    },
    {
      "type": "Feature",
      "properties": {
        "name": "Anemon Konya Hotel",
        "id": 123,
        "icon": "stationIcon",
        "address": "Anemon Hotel Lobi, Konya, Konya 42110"
      },
      "geometry": { "type": "Point", "coordinates": [32.4812, 37.8943] }
    },
    {
      "type": "Feature",
      "properties": {
        "name": "Novaland Konya Açık Otopark",
        "id": 124,
        "icon": "stationIcon",
        "address": "PlayZone, Novada Outlet Konya, Konya, Konya 42250"
      },
      "geometry": { "type": "Point", "coordinates": [32.524, 37.9491] }
    },
    {
      "type": "Feature",
      "properties": {
        "name": "Novaland Konya Kapalı Otopark",
        "id": 125,
        "icon": "stationIcon",
        "address": "Nova Hill Profesyonel Oto Yıkama, Sancak Mah. Veysel Karani Cad. No:6, Konya, Konya 42250"
      },
      "geometry": { "type": "Point", "coordinates": [32.5255, 37.9484] }
    },
    {
      "type": "Feature",
      "properties": {
        "name": "Ibis Hotel Adana",
        "id": 126,
        "icon": "stationIcon",
        "address": "İbis Hotel Teras Cafe, Adana, Adana 01060"
      },
      "geometry": { "type": "Point", "coordinates": [35.3214, 36.9916] }
    },
    {
      "type": "Feature",
      "properties": {
        "name": "Anemon Adana Hotel",
        "id": 127,
        "icon": "stationIcon",
        "address": "Life Spa & Fitness  Anemon Hotel, Life Spa & Fitness  Anemon Hotel, Adana, Adana 01200"
      },
      "geometry": { "type": "Point", "coordinates": [35.2402, 37.0155] }
    },
    {
      "type": "Feature",
      "properties": {
        "name": "Anemon Iskenderun Hotel",
        "id": 128,
        "icon": "stationIcon",
        "address": "Kayıp Kent Cafe, Akçali, Hatay 31290"
      },
      "geometry": { "type": "Point", "coordinates": [36.1439, 36.545] }
    },
    {
      "type": "Feature",
      "properties": {
        "name": "Axis AVM Bayrampaşa",
        "id": 129,
        "icon": "stationIcon",
        "address": "Cinemaximum, Istanbul, 34055"
      },
      "geometry": { "type": "Point", "coordinates": [28.9205, 41.0359] }
    },
    {
      "type": "Feature",
      "properties": {
        "name": "Novotel Gaziantep",
        "id": 130,
        "icon": "stationIcon",
        "address": "Novotel Havuzbası, Gaziantep, Gaziantep 27080"
      },
      "geometry": { "type": "Point", "coordinates": [37.3809, 37.0709] }
    },
    {
      "type": "Feature",
      "properties": {
        "name": "Anemon Malatya Hotel",
        "id": 131,
        "icon": "stationIcon",
        "address": "HİEP Malatya 2013, Anemon Malatya, Yesilyurt, Malatya 44900"
      },
      "geometry": { "type": "Point", "coordinates": [38.2161, 38.3352] }
    },
    {
      "type": "Feature",
      "properties": {
        "name": "A Plus AVM Ataköy",
        "id": 132,
        "icon": "stationIcon",
        "address": "BMW Studio Ataköy, Ataköy Plus AVM, Istanbul, 34158"
      },
      "geometry": { "type": "Point", "coordinates": [28.85018, 40.978512] }
    },
    {
      "type": "Feature",
      "properties": {
        "name": "Sivas Revag Palace Hotel",
        "id": 133,
        "icon": "stationIcon",
        "address": "Bakircilar Carsisi, Sivas, Sivas 58040"
      },
      "geometry": { "type": "Point", "coordinates": [37.0236, 39.7469] }
    },
    {
      "type": "Feature",
      "properties": {
        "name": "Novotel Kayseri",
        "id": 134,
        "icon": "stationIcon",
        "address": "Breakfast Lounge, Ibis Hotel, Kayseri, Kayseri 38030"
      },
      "geometry": { "type": "Point", "coordinates": [35.4953, 38.7359] }
    },
    {
      "type": "Feature",
      "properties": {
        "name": "01 Burda AVM Adana",
        "id": 135,
        "icon": "stationIcon",
        "address": "Vakko, Ahmet Remzi Yüreğir Mh., Adana, Adana 01130"
      },
      "geometry": { "type": "Point", "coordinates": [35.30659, 36.993565] }
    },
    {
      "type": "Feature",
      "properties": {
        "name": "Crystal Kaymaklı Hotel Nevşehir",
        "id": 136,
        "icon": "stationIcon",
        "address": "Nevşehir Caddesi, 50760, Kaymakli, Nevşehir"
      },
      "geometry": { "type": "Point", "coordinates": [34.7503, 38.4624] }
    },
    {
      "type": "Feature",
      "properties": {
        "name": "Nissara AVM Nevşehir",
        "id": 137,
        "icon": "stationIcon",
        "address": "Chocolabs, Yeni Mah. Lale Cad. No:29, Nevsehir, Nevşehir 50100"
      },
      "geometry": { "type": "Point", "coordinates": [34.7152, 38.6246] }
    },
    {
      "type": "Feature",
      "properties": {
        "name": "Novada Yozgat AVM",
        "id": 138,
        "icon": "stationIcon",
        "address": "Cinemaximum, Novada Yozgat, Yozgat, Yozgat 66100"
      },
      "geometry": { "type": "Point", "coordinates": [34.821, 39.8235] }
    },
    {
      "type": "Feature",
      "properties": {
        "name": "Nata Vega Outlet",
        "id": 139,
        "icon": "stationIcon",
        "address": "Lokum Rüyası, Ankara, Ankara 06480"
      },
      "geometry": { "type": "Point", "coordinates": [32.9329, 39.8875] }
    },
    {
      "type": "Feature",
      "properties": {
        "name": "Kaysermall Outlet",
        "id": 140,
        "icon": "stationIcon",
        "address": "Tuana Reis Bey Köfte, İldem Park, Kayseri, Kayseri 38180"
      },
      "geometry": { "type": "Point", "coordinates": [35.6062, 38.7867] }
    },
    {
      "type": "Feature",
      "properties": {
        "name": "YDA Park Avenue",
        "id": 141,
        "icon": "stationIcon",
        "address": "Anadolu Bulvarı, 06200, Ankara, Ankara"
      },
      "geometry": { "type": "Point", "coordinates": [32.7711, 39.9701] }
    },
    {
      "type": "Feature",
      "properties": {
        "name": "Türkiye Petrolleri Etimesgut",
        "id": 142,
        "icon": "stationIcon",
        "address": "Dumlupınar Bulvarı, 06790, Ankara, Ankara"
      },
      "geometry": { "type": "Point", "coordinates": [32.6744, 39.8925] }
    },
    {
      "type": "Feature",
      "properties": {
        "name": "Türkiye Petrolleri Çorum",
        "id": 143,
        "icon": "stationIcon",
        "address": "Opet İnal Petrol, Çorum, Çorum 19040"
      },
      "geometry": { "type": "Point", "coordinates": [34.9631, 40.571] }
    },
    {
      "type": "Feature",
      "properties": {
        "name": "Cornerpark Çerkezköy",
        "id": 144,
        "icon": "stationIcon",
        "address": "31. Sokak, 59510, Kapakli, Tekirdağ"
      },
      "geometry": { "type": "Point", "coordinates": [27.9792, 41.3189] }
    },
    {
      "type": "Feature",
      "properties": {
        "name": "ICA Işıklar Bi' Mola DC",
        "id": 145,
        "icon": "stationIcon",
        "address": "KUZEY MARMARA OTOYOLU BURGER KİNG, 3. BOĞAZ KÖPRÜSÜ VE KUZEY MARMARA OTOYOLU OTOYOL TESİS NO:1 EYÜP, Istanbul, 34076"
      },
      "geometry": { "type": "Point", "coordinates": [28.8259, 41.1957] }
    },
    {
      "type": "Feature",
      "properties": {
        "name": "Oksijen O375 İzmir Yönü ",
        "id": 146,
        "icon": "stationIcon",
        "address": "İstanbul-İzmir Otoyolu, 45070, Karaoglanli, Manisa"
      },
      "geometry": { "type": "Point", "coordinates": [27.5731, 38.4875] }
    },
    {
      "type": "Feature",
      "properties": {
        "name": "Huqqa Kuruçeşme",
        "id": 147,
        "icon": "stationIcon",
        "address": "56 Muallim Naci Caddesi, 34345, Beşiktaş"
      },
      "geometry": { "type": "Point", "coordinates": [29.0344, 41.0557] }
    },
    {
      "type": "Feature",
      "properties": {
        "name": "Arabacı Otomotiv",
        "id": 148,
        "icon": "stationIcon",
        "address": "Sanayi Metro İstasyonu, Maslak, Şişli, Istanbul, 34415"
      },
      "geometry": { "type": "Point", "coordinates": [29.0045, 41.0914] }
    },
    {
      "type": "Feature",
      "properties": {
        "name": "Axis Kağıthane AVM",
        "id": 149,
        "icon": "stationIcon",
        "address": "Cinemaximum, Axis, Istanbul, 34406"
      },
      "geometry": { "type": "Point", "coordinates": [28.9824, 41.0864] }
    },
    {
      "type": "Feature",
      "properties": {
        "name": "Metrogarden AVM",
        "id": 150,
        "icon": "stationIcon",
        "address": "Fitness Center, Sur Yapı Metrogarden, Istanbul, 34773"
      },
      "geometry": { "type": "Point", "coordinates": [29.1772, 41.0156] }
    },
    {
      "type": "Feature",
      "properties": {
        "name": "39 Burda AVM",
        "id": 151,
        "icon": "stationIcon",
        "address": "Tekzen, Esas39Burda, Lüleburgaz, Kırklareli 39750"
      },
      "geometry": { "type": "Point", "coordinates": [27.3493, 41.386] }
    },
    {
      "type": "Feature",
      "properties": {
        "name": "Sur Yapı Exen",
        "id": 152,
        "icon": "stationIcon",
        "address": "Murat Market, Tantavi Mah. Mandıra Cad., Istanbul, 34764"
      },
      "geometry": { "type": "Point", "coordinates": [29.089921, 41.032895] }
    },
    {
      "type": "Feature",
      "properties": {
        "name": "41 Bura AVM",
        "id": 153,
        "icon": "stationIcon",
        "address": "BARÇIN, 41 Burda Avm, Kocaeli, Kocaeli 41040"
      },
      "geometry": { "type": "Point", "coordinates": [29.947612, 40.757001] }
    },
    {
      "type": "Feature",
      "properties": {
        "name": "Optimal Bosch Araç Servisi",
        "id": 154,
        "icon": "stationIcon",
        "address": "Mareşal Fevzi Çakmak Caddesi, 34844, Maltepe"
      },
      "geometry": { "type": "Point", "coordinates": [29.139853, 40.915904] }
    },
    {
      "type": "Feature",
      "properties": {
        "name": "Yaşa 2 Bosch Araç Servisi",
        "id": 155,
        "icon": "stationIcon",
        "address": "81 Silahtarağa Caddesi, 34050, Eyüpsultan"
      },
      "geometry": { "type": "Point", "coordinates": [28.943826, 41.058937] }
    },
    {
      "type": "Feature",
      "properties": {
        "name": "Oğuşlar Bosch Araç Servisi",
        "id": 156,
        "icon": "stationIcon",
        "address": "Dere Sokağı, 34760, Ümraniye"
      },
      "geometry": { "type": "Point", "coordinates": [29.106754, 41.011856] }
    },
    {
      "type": "Feature",
      "properties": {
        "name": "Antalya Aktürk Otomotiv",
        "id": 157,
        "icon": "stationIcon",
        "address": "Jaguar Yetkili Servisi Akturk Otomotiv, Yenigol Mh. Nergiz Sk. No:90 Muratpasa, Muratpasa, Antalya 07230"
      },
      "geometry": { "type": "Point", "coordinates": [30.775926, 36.91212] }
    },
    {
      "type": "Feature",
      "properties": {
        "name": "Kadıköy Sarı Lacivert Derneği",
        "id": 158,
        "icon": "stationIcon",
        "address": "32 Reşit Paşa Sokağı, 34724, Kadıköy"
      },
      "geometry": { "type": "Point", "coordinates": [29.035422, 40.986449] }
    },
    {
      "type": "Feature",
      "properties": {
        "name": "Crystal Admiral Resort",
        "id": 159,
        "icon": "stationIcon",
        "address": "Crystal Admiral Hotels Kahvaltı, Manavgat, Antalya 07600"
      },
      "geometry": { "type": "Point", "coordinates": [31.597726, 36.695611] }
    },
    {
      "type": "Feature",
      "properties": {
        "name": "Crystal Palace Luxury Resort",
        "id": 160,
        "icon": "stationIcon",
        "address": "Crystal Disco, Crystal Palace Luxury Resort, Manavgat, Antalya 07620"
      },
      "geometry": { "type": "Point", "coordinates": [31.297492, 36.819316] }
    },
    {
      "type": "Feature",
      "properties": {
        "name": "Ibis Styles Hotel Bomonti",
        "id": 161,
        "icon": "stationIcon",
        "address": "Ibıs Stayles İstanbul Bomonti, Halide Edip Adivar Mah, Akar Cad No 6 Sisli, Istanbul, 34384"
      },
      "geometry": { "type": "Point", "coordinates": [28.978984, 41.061267] }
    },
    {
      "type": "Feature",
      "properties": {
        "name": "Crystal Sunset Luxury Resort",
        "id": 162,
        "icon": "stationIcon",
        "address": "Süleyman Demirel Bulvarı, 07330, Side, Antalya"
      },
      "geometry": { "type": "Point", "coordinates": [31.381162, 36.790203] }
    },
    {
      "type": "Feature",
      "properties": {
        "name": "Novamall Manavgat AVM",
        "id": 163,
        "icon": "stationIcon",
        "address": "U.S. Polo Assn., Sorgun Mah. 8096 Sok. No:5/1 Manavgat, Mağaza No: Gf Blok 19/21, Manavgat, Antalya 07600"
      },
      "geometry": { "type": "Point", "coordinates": [31.426051, 36.780906] }
    },
    {
      "type": "Feature",
      "properties": {
        "name": "Crystal Family Resort",
        "id": 164,
        "icon": "stationIcon",
        "address": "Crystal Family Resort & Spa, Serik, Antalya 07500"
      },
      "geometry": { "type": "Point", "coordinates": [31.14858, 36.834605] }
    },
    {
      "type": "Feature",
      "properties": {
        "name": "Crystal Waterworld Resort Spa",
        "id": 165,
        "icon": "stationIcon",
        "address": "Spa&Wellness Center, Crystal Waterworld, Serik, Antalya 07500"
      },
      "geometry": { "type": "Point", "coordinates": [31.158657, 36.83344] }
    },
    {
      "type": "Feature",
      "properties": {
        "name": "Amara Centro Resort",
        "id": 166,
        "icon": "stationIcon",
        "address": "Kervansaray Lobby Bar, Aksu, Antalya 07112"
      },
      "geometry": { "type": "Point", "coordinates": [30.885178, 36.855961] }
    },
    {
      "type": "Feature",
      "properties": {
        "name": "Lara Barut Hotel",
        "id": 167,
        "icon": "stationIcon",
        "address": "Barut Lara Cafeteria, Muratpasa, Antalya 07230"
      },
      "geometry": { "type": "Point", "coordinates": [30.856609, 36.857267] }
    },
    {
      "type": "Feature",
      "properties": {
        "name": "Crystal Aura Beach Resort",
        "id": 168,
        "icon": "stationIcon",
        "address": "Lobby Bar @ Crystal Aura Beach, Kemer, Kemer, Antalya 07980"
      },
      "geometry": { "type": "Point", "coordinates": [30.557868, 36.611644] }
    },
    {
      "type": "Feature",
      "properties": {
        "name": "Crystal De Luxe Resort",
        "id": 169,
        "icon": "stationIcon",
        "address": "Swimming Pool @Crystal De Luxe Resort & Spa Kemer, Kemer, Antalya 07980"
      },
      "geometry": { "type": "Point", "coordinates": [30.562651, 36.605663] }
    },
    {
      "type": "Feature",
      "properties": {
        "name": "Crystal Nirvana Lagoon  ",
        "id": 170,
        "icon": "stationIcon",
        "address": "Crystal Nirvana Lagoon Villas Spa & Suits, Çifteçeşmeler Çevkii Atatürk Cad. No:139 Beldibi, Konyaalti, Antalya 07985"
      },
      "geometry": { "type": "Point", "coordinates": [30.566677, 36.710791] }
    },
    {
      "type": "Feature",
      "properties": {
        "name": "Amara Prestige Hotel",
        "id": 171,
        "icon": "stationIcon",
        "address": "Amara Prestij Hotel Spa, Esentepe Mah. Atatürk Cad. No : 17, Kemer, Antalya 07994"
      },
      "geometry": { "type": "Point", "coordinates": [30.559217, 36.666043] }
    },
    {
      "type": "Feature",
      "properties": {
        "name": "Amara Dolce Vita Hotel",
        "id": 172,
        "icon": "stationIcon",
        "address": "Reception, Amara Dolce Vita, Tekirova, Antalya 07995"
      },
      "geometry": { "type": "Point", "coordinates": [30.522283, 36.48558] }
    },
    {
      "type": "Feature",
      "properties": {
        "name": "Galeri Kristal Organize Sanayi",
        "id": 173,
        "icon": "stationIcon",
        "address": "Antalya - Burdur Yolu, 07190, Dösemealti, Antalya"
      },
      "geometry": { "type": "Point", "coordinates": [30.617363, 37.083433] }
    },
    {
      "type": "Feature",
      "properties": {
        "name": "Başaran Scania Döşemealtı",
        "id": 174,
        "icon": "stationIcon",
        "address": "Scania - Başaran, Altınkale Mah. Antalya - Burdur Karayolu 10. Km. Akdeniz Bulv. 42. Sok. No: 199/1, Dösemealti, Antalya 07190"
      },
      "geometry": { "type": "Point", "coordinates": [30.629461, 37.000469] }
    },
    {
      "type": "Feature",
      "properties": {
        "name": "Crystal Green Bay Resort ",
        "id": 175,
        "icon": "stationIcon",
        "address": "Crystal Green Bay Resort & Spa, Meşelik Köyü, Güvercinlik, Milas, Muğla 48200"
      },
      "geometry": { "type": "Point", "coordinates": [27.555044, 37.158269] }
    },
    {
      "type": "Feature",
      "properties": {
        "name": "Hampton by Hilton İzmir Aliağa",
        "id": 176,
        "icon": "stationIcon",
        "address": "11 130 Sokak, 35800, Aliaga, İzmir"
      },
      "geometry": { "type": "Point", "coordinates": [26.977872, 38.832536] }
    },
    {
      "type": "Feature",
      "properties": {
        "name": "İzmir Park AVM",
        "id": 177,
        "icon": "stationIcon",
        "address": "Toga Shoes, İzmir Park AVM, Izmir, İzmir 35270"
      },
      "geometry": { "type": "Point", "coordinates": [27.128812, 38.403418] }
    },
    {
      "type": "Feature",
      "properties": {
        "name": "Varyant Karşıyaka Plus",
        "id": 178,
        "icon": "stationIcon",
        "address": "6730. Sokak, 35570, Izmir, İzmir"
      },
      "geometry": { "type": "Point", "coordinates": [27.097205, 38.492581] }
    },
    {
      "type": "Feature",
      "properties": {
        "name": "Bamboo Urla AVM",
        "id": 179,
        "icon": "stationIcon",
        "address": "Penti, İskele Mah. İzmir Asfaltı Cad. No:179, Urla, İzmir 35430"
      },
      "geometry": { "type": "Point", "coordinates": [26.770375, 38.335618] }
    },
    {
      "type": "Feature",
      "properties": {
        "name": "Korumar Hotels Kuşadası",
        "id": 180,
        "icon": "stationIcon",
        "address": "Kuşadası Sahil, Kusadasi, Aydın 09400"
      },
      "geometry": { "type": "Point", "coordinates": [27.265358, 37.878345] }
    },
    {
      "type": "Feature",
      "properties": {
        "name": "Köfteci Tamer Öztürk",
        "id": 181,
        "icon": "stationIcon",
        "address": "Aydın - Muğla Yolu, 09500, Çine, Aydın"
      },
      "geometry": { "type": "Point", "coordinates": [28.045729, 37.623402] }
    },
    {
      "type": "Feature",
      "properties": {
        "name": "İkon Evleri Antalya",
        "id": 182,
        "icon": "stationIcon",
        "address": "Bukuu Albüm, siyavuşpaşa mah kasımpatı sk, Muratpasa, Antalya 07230"
      },
      "geometry": { "type": "Point", "coordinates": [30.797676, 36.856591] }
    },
    {
      "type": "Feature",
      "properties": {
        "name": "Charisma De Lux Kuşadası",
        "id": 183,
        "icon": "stationIcon",
        "address": "Ramada Kids Club, Kusadasi, Aydın 09400"
      },
      "geometry": { "type": "Point", "coordinates": [27.265194, 37.875027] }
    },
    {
      "type": "Feature",
      "properties": {
        "name": "Dempet Demireller",
        "id": 184,
        "icon": "stationIcon",
        "address": "Konya-Afyonkarahisar Yolu, 03702, Çay, Afyonkarahisar"
      },
      "geometry": { "type": "Point", "coordinates": [30.922366, 38.589886] }
    },
    {
      "type": "Feature",
      "properties": {
        "name": "Köroğlu Meşelik Mangal Evi",
        "id": 185,
        "icon": "stationIcon",
        "address": "Köroğlu Meşelik Et Mangal, Afyonkarahisar - Antalya Karayolu 34. Km, Sincanli, Afyonkarahisar 03852"
      },
      "geometry": { "type": "Point", "coordinates": [30.311673, 38.645131] }
    },
    {
      "type": "Feature",
      "properties": {
        "name": "Afyonkarahisar OSB",
        "id": 186,
        "icon": "stationIcon",
        "address": "Selahattin Mühsürler Mühendislik-Danışmanlık&Marka-Patent&İş Sağlığı ve Güvenliği, Afyonkarahisar, Afyonkarahisar 03030"
      },
      "geometry": { "type": "Point", "coordinates": [30.564441, 38.786782] }
    },
    {
      "type": "Feature",
      "properties": {
        "name": "Besa Kule",
        "id": 187,
        "icon": "stationIcon",
        "address": "Asp Poligon, Besa Kule, Ankara, Ankara 06530"
      },
      "geometry": { "type": "Point", "coordinates": [32.804773, 39.909287] }
    },
    {
      "type": "Feature",
      "properties": {
        "name": "Çalgan Restaurant",
        "id": 188,
        "icon": "stationIcon",
        "address": "BARAKA MEYHANE, Alacaatlıkoyu No 1, Ankara, Ankara 06810"
      },
      "geometry": { "type": "Point", "coordinates": [32.67524, 39.851152] }
    },
    {
      "type": "Feature",
      "properties": {
        "name": "Karum AVM",
        "id": 189,
        "icon": "stationIcon",
        "address": "Karum Bahçe, Karum, Ankara, Ankara 06680"
      },
      "geometry": { "type": "Point", "coordinates": [32.863035, 39.89989] }
    },
    {
      "type": "Feature",
      "properties": {
        "name": "Besa Nova",
        "id": 190,
        "icon": "stationIcon",
        "address": "TEB ATM, Yaşamkent Mah. 3222. Cad. Besa Nova Plaza No: 27, Ankara, Ankara 06810"
      },
      "geometry": { "type": "Point", "coordinates": [32.643105, 39.861902] }
    },
    {
      "type": "Feature",
      "properties": {
        "name": "Besa Karina",
        "id": 191,
        "icon": "stationIcon",
        "address": "Sevgi Mutfağı Ev Yemekleri, Yaşamkent Mahallesi 3297. Sokak Besa Karina Plaza Yenimahalle Ankara, Ankara, Ankara 06810"
      },
      "geometry": { "type": "Point", "coordinates": [32.64508, 39.856826] }
    },
    {
      "type": "Feature",
      "properties": {
        "name": "TP Akyurt Şan Petrol",
        "id": 192,
        "icon": "stationIcon",
        "address": "Özal Bulvarı, 06750, Akyurt, Ankara"
      },
      "geometry": { "type": "Point", "coordinates": [32.964646, 40.078854] }
    },
    {
      "type": "Feature",
      "properties": {
        "name": "Yıldırım Kule",
        "id": 193,
        "icon": "stationIcon",
        "address": "Osman Tan Cd., 06520, Ankara, Ankara"
      },
      "geometry": { "type": "Point", "coordinates": [32.812842, 39.882246] }
    },
    {
      "type": "Feature",
      "properties": {
        "name": "Santra Evleri",
        "id": 194,
        "icon": "stationIcon",
        "address": "2676. Cd., 06810, Ankara, Ankara"
      },
      "geometry": { "type": "Point", "coordinates": [32.698211, 39.884256] }
    },
    {
      "type": "Feature",
      "properties": {
        "name": "ACity AVM Açık Otopark",
        "id": 195,
        "icon": "stationIcon",
        "address": "Acity Avm, 06105, Ankara, Ankara"
      },
      "geometry": { "type": "Point", "coordinates": [32.762678, 39.945802] }
    },
    {
      "type": "Feature",
      "properties": {
        "name": "Acity AVM Kapalı Otopark",
        "id": 196,
        "icon": "stationIcon",
        "address": "Vodafone Cep Merkezi, Acity Avm Fsm Bul.No:244 Istanbul Yolu, Ankara, Ankara 06105"
      },
      "geometry": { "type": "Point", "coordinates": [32.762474, 39.94622] }
    },
    {
      "type": "Feature",
      "properties": {
        "name": "The Green Park Sivas",
        "id": 197,
        "icon": "stationIcon",
        "address": "1 Toptancılar Caddesi, 58010, Sivas, Sivas"
      },
      "geometry": { "type": "Point", "coordinates": [36.996405, 39.735827] }
    },
    {
      "type": "Feature",
      "properties": {
        "name": "Samsun Citymall AVM",
        "id": 198,
        "icon": "stationIcon",
        "address": "Happy Moon's, City Mall, Atakum, Samsun 55200"
      },
      "geometry": { "type": "Point", "coordinates": [36.273356, 41.336043] }
    },
    {
      "type": "Feature",
      "properties": {
        "name": "Sancaktepe Wyndham Otel",
        "id": 199,
        "icon": "stationIcon",
        "address": "Tryp By Wyndham Istanbul Sancaktepe, Eyup Sultan Mah Kizilay Cad, Istanbul, 34885"
      },
      "geometry": { "type": "Point", "coordinates": [29.227127, 40.984237] }
    },
    {
      "type": "Feature",
      "properties": {
        "name": "Bodrum Mavi Kumsal Otel",
        "id": 200,
        "icon": "stationIcon",
        "address": "10 Kaptan Kalesi Sokak, 48400, Bodrum, Muğla"
      },
      "geometry": { "type": "Point", "coordinates": [27.417802, 37.029804] }
    },
    {
      "type": "Feature",
      "properties": {
        "name": "Hayati Ocakbaşı",
        "id": 201,
        "icon": "stationIcon",
        "address": "Starbucks, Nida Kule, Istanbul, 34742"
      },
      "geometry": { "type": "Point", "coordinates": [29.098134, 40.973761] }
    },
    {
      "type": "Feature",
      "properties": {
        "name": "Hotel Caeli",
        "id": 202,
        "icon": "stationIcon",
        "address": "Hotel Caeli, Eceabat, Çanakkale 17902"
      },
      "geometry": { "type": "Point", "coordinates": [26.382735, 40.265433] }
    },
    {
      "type": "Feature",
      "properties": {
        "name": "Angel Blue Restaurant",
        "id": 203,
        "icon": "stationIcon",
        "address": "Sakıp Sabancı Caddesi, 34467, Sarıyer"
      },
      "geometry": { "type": "Point", "coordinates": [29.05298, 41.098648] }
    },
    {
      "type": "Feature",
      "properties": {
        "name": "Kolin Hotel",
        "id": 204,
        "icon": "stationIcon",
        "address": "Kolin Altı, Kolin Hotel, Boğazkent Mah., 17100 Çanakkale, Turkey, Çanakkale, Çanakkale 17110"
      },
      "geometry": { "type": "Point", "coordinates": [26.407041, 40.113534] }
    },
    {
      "type": "Feature",
      "properties": {
        "name": "Chilai Restaurant Bebek",
        "id": 205,
        "icon": "stationIcon",
        "address": "69 Cevdetpaşa Caddesi, 34342, Beşiktaş"
      },
      "geometry": { "type": "Point", "coordinates": [29.045419, 41.078651] }
    },
    {
      "type": "Feature",
      "properties": {
        "name": "Suvla Wines",
        "id": 206,
        "icon": "stationIcon",
        "address": "Suvla Şaraphanesi, Ismetpasa Mh., Eceabat, Çanakkale 17900"
      },
      "geometry": { "type": "Point", "coordinates": [26.352381, 40.178338] }
    },
    {
      "type": "Feature",
      "properties": {
        "name": "Batı Park AVM",
        "id": 207,
        "icon": "stationIcon",
        "address": "Opis Opel & Chevrolet, Ankara, Ankara 06370"
      },
      "geometry": { "type": "Point", "coordinates": [32.72765, 39.945731] }
    },
    {
      "type": "Feature",
      "properties": {
        "name": "Chataeu Kalpak Şarköy",
        "id": 208,
        "icon": "stationIcon",
        "address": "Château Kalpak Wine Factory, Gelibolu Yolu 7. Km, 59800 Şarköy, Sarköy, Tekirdağ 59800"
      },
      "geometry": { "type": "Point", "coordinates": [27.055097, 40.653905] }
    },
    {
      "type": "Feature",
      "properties": {
        "name": "Angel Mercan Restaurant",
        "id": 209,
        "icon": "stationIcon",
        "address": "Cafer Bey Sokağı, 34940, Tuzla"
      },
      "geometry": { "type": "Point", "coordinates": [29.27411, 40.81986] }
    },
    {
      "type": "Feature",
      "properties": {
        "name": "Ertex Luxury Ankara",
        "id": 210,
        "icon": "stationIcon",
        "address": "Capilon Mobilya, Ankara, Ankara 06370"
      },
      "geometry": { "type": "Point", "coordinates": [32.731221, 39.946048] }
    },
    {
      "type": "Feature",
      "properties": {
        "name": "Park lnn by Radisson Ankara",
        "id": 211,
        "icon": "stationIcon",
        "address": "5 Aleksander Dubçek Caddesi, 06550, Ankara, Ankara"
      },
      "geometry": { "type": "Point", "coordinates": [32.853824, 39.864737] }
    },
    {
      "type": "Feature",
      "properties": {
        "name": "Krempark AVM",
        "id": 212,
        "icon": "stationIcon",
        "address": "Gum Gym, İnönü mahallesi Gaziosmanpaşa caddesi no:28, Kapakli, Tekirdağ 59510"
      },
      "geometry": { "type": "Point", "coordinates": [27.967276, 41.3209] }
    },
    {
      "type": "Feature",
      "properties": {
        "name": "Volkan Arpacı Ataşehir",
        "id": 213,
        "icon": "stationIcon",
        "address": "Köz Kanat & Kebap, Doruk Sok. No: 7/A, Istanbul, 34750"
      },
      "geometry": { "type": "Point", "coordinates": [29.124122, 40.98801] }
    },
    {
      "type": "Feature",
      "properties": {
        "name": "Port Alaçatı Marina",
        "id": 214,
        "icon": "stationIcon",
        "address": "Shaka Marine Cafe & Bistro, Haci Memis Mah. 8018 Sk. No.19 Port Limani 35930 Alacati, Çesme, İzmir 35937"
      },
      "geometry": { "type": "Point", "coordinates": [26.382375, 38.255278] }
    },
    {
      "type": "Feature",
      "properties": {
        "name": "Aegean Apartments Çeşme",
        "id": 215,
        "icon": "stationIcon",
        "address": "Hurmali, 35937, Çesme, İzmir"
      },
      "geometry": { "type": "Point", "coordinates": [26.389124, 38.291097] }
    },
    {
      "type": "Feature",
      "properties": {
        "name": "Otolab Bosch Araç Servisi",
        "id": 216,
        "icon": "stationIcon",
        "address": "Yabancı Diller Yüksekokulu, Yaşar Üniversitesi, Izmir, İzmir 35100"
      },
      "geometry": { "type": "Point", "coordinates": [27.201527, 38.453567] }
    },
    {
      "type": "Feature",
      "properties": {
        "name": "Tırak Bosch Araç Servisi",
        "id": 217,
        "icon": "stationIcon",
        "address": "8789. Sokak, 35620, Izmir, İzmir"
      },
      "geometry": { "type": "Point", "coordinates": [27.044446, 38.512538] }
    },
    {
      "type": "Feature",
      "properties": {
        "name": "Izelman Alsancak Punta Katlı Otopark",
        "id": 218,
        "icon": "stationIcon",
        "address": "Katlı Otopark, Alsancak, Izmir, İzmir 35220"
      },
      "geometry": { "type": "Point", "coordinates": [27.145379, 38.441098] }
    },
    {
      "type": "Feature",
      "properties": {
        "name": "İzelman Alsancak Yeraltı Otoparkı",
        "id": 219,
        "icon": "stationIcon",
        "address": "Konak E-Sınav Merkezi, Konak, Izmir, İzmir 35220"
      },
      "geometry": { "type": "Point", "coordinates": [27.147778, 38.434202] }
    },
    {
      "type": "Feature",
      "properties": {
        "name": "İzelman Bornova Katlı Otopark",
        "id": 220,
        "icon": "stationIcon",
        "address": "Bornova Katlı Otopark, Bornova, İzmir 35040"
      },
      "geometry": { "type": "Point", "coordinates": [27.214789, 38.465246] }
    },
    {
      "type": "Feature",
      "properties": {
        "name": "İzelman Çankaya Katlı Otopark",
        "id": 221,
        "icon": "stationIcon",
        "address": "Emin Metal, İkicesmelik, Izmir, İzmir 35240"
      },
      "geometry": { "type": "Point", "coordinates": [27.137983, 38.419889] }
    },
    {
      "type": "Feature",
      "properties": {
        "name": "Armas Otel",
        "id": 222,
        "icon": "stationIcon",
        "address": "Ramada Resort Oyun Salloon, Kirsehir, Kırşehir 40002"
      },
      "geometry": { "type": "Point", "coordinates": [34.128258, 39.130685] }
    },
    {
      "type": "Feature",
      "properties": {
        "name": "Demosan Otel Karaman",
        "id": 223,
        "icon": "stationIcon",
        "address": "Hatipoğlu Simit Diyarı, Karaman, Karaman 70200"
      },
      "geometry": { "type": "Point", "coordinates": [33.224929, 37.17904] }
    },
    {
      "type": "Feature",
      "properties": {
        "name": "Lukoil Hasis Petrol",
        "id": 224,
        "icon": "stationIcon",
        "address": "Elazığ-Bingöl Yolu, 23350, Elazig, Elazığ"
      },
      "geometry": { "type": "Point", "coordinates": [39.269009, 38.629541] }
    },
    {
      "type": "Feature",
      "properties": {
        "name": "Park Yirmiüç AVM",
        "id": 225,
        "icon": "stationIcon",
        "address": "Park Yirmiüç Teras, Park Yirmiüç, Elazig, Elazığ 23270"
      },
      "geometry": { "type": "Point", "coordinates": [39.174183, 38.665566] }
    },
    {
      "type": "Feature",
      "properties": {
        "name": "YDA Dalaman Havalimanı",
        "id": 226,
        "icon": "stationIcon",
        "address": "Gazi Bulvarı, 48770, Dalaman, Muğla"
      },
      "geometry": { "type": "Point", "coordinates": [28.784595, 36.716049] }
    },
    {
      "type": "Feature",
      "properties": {
        "name": "TP Balışeyh Petrol",
        "id": 227,
        "icon": "stationIcon",
        "address": "Kırıkkale-Yozgat Yolu, 71522, Baliseyh, Kırıkkale"
      },
      "geometry": { "type": "Point", "coordinates": [33.795736, 39.941544] }
    },
    {
      "type": "Feature",
      "properties": {
        "name": "TP Canbolat Petrol Çankırı",
        "id": 228,
        "icon": "stationIcon",
        "address": "Türkiye Petrolleri TP, Çankiri, Çankırı 18200"
      },
      "geometry": { "type": "Point", "coordinates": [33.617844, 40.593886] }
    },
    {
      "type": "Feature",
      "properties": {
        "name": "TP Canbolat Petrol Sülüklü ",
        "id": 229,
        "icon": "stationIcon",
        "address": "Baba Lokantası, Sülüklü Mevkii, Çankiri, Çankırı 18010"
      },
      "geometry": { "type": "Point", "coordinates": [33.659079, 40.444608] }
    },
    {
      "type": "Feature",
      "properties": {
        "name": "Teco Yeni Petrol",
        "id": 230,
        "icon": "stationIcon",
        "address": "Sivas-Yozgat Yolu, 66700, Sorgun, Yozgat"
      },
      "geometry": { "type": "Point", "coordinates": [35.158934, 39.811824] }
    },
    {
      "type": "Feature",
      "properties": {
        "name": "La Quinta by Wyndham",
        "id": 231,
        "icon": "stationIcon",
        "address": "Hotel New Jasmin, Gazi Mustafa Kemal Bul. Çerkez Mevkii No:61 Merkez, Giresun, Giresun 28100"
      },
      "geometry": { "type": "Point", "coordinates": [38.42048, 40.915875] }
    },
    {
      "type": "Feature",
      "properties": {
        "name": "Uniport AVM",
        "id": 232,
        "icon": "stationIcon",
        "address": "Devlet Sahil Yolu Caddesi, 52300, Ünye, Ordu"
      },
      "geometry": { "type": "Point", "coordinates": [37.288546, 41.12807] }
    },
    {
      "type": "Feature",
      "properties": {
        "name": "No57 Suites Otel",
        "id": 233,
        "icon": "stationIcon",
        "address": "Açelya Sk., 57002, Sinop, Sinop"
      },
      "geometry": { "type": "Point", "coordinates": [35.11833, 42.01381] }
    },
    {
      "type": "Feature",
      "properties": {
        "name": "Lüleburgaz Bakucha Otel",
        "id": 234,
        "icon": "stationIcon",
        "address": "Bakucha Poolside, Lüleburgaz, Kırklareli 39752"
      },
      "geometry": { "type": "Point", "coordinates": [27.299603, 41.543966] }
    },
    {
      "type": "Feature",
      "properties": {
        "name": "Amasya Park AVM",
        "id": 235,
        "icon": "stationIcon",
        "address": "Eftelioglu Tarim, Haciilyas Mah. Hal Sok. No.5 9/D, Amasya, Amasya 05100"
      },
      "geometry": { "type": "Point", "coordinates": [35.821429, 40.65096] }
    },
    {
      "type": "Feature",
      "properties": {
        "name": "Burdur Güven Otopark",
        "id": 236,
        "icon": "stationIcon",
        "address": "Burdur - Karamanlı Yolu, 15050, Burdur, Burdur"
      },
      "geometry": { "type": "Point", "coordinates": [30.27913, 37.70843] }
    },
    {
      "type": "Feature",
      "properties": {
        "name": "TP Amasya Öksüzler Petrol",
        "id": 237,
        "icon": "stationIcon",
        "address": "Alptekin Caddesi, 05100, Amasya, Amasya"
      },
      "geometry": { "type": "Point", "coordinates": [35.808812, 40.653659] }
    },
    {
      "type": "Feature",
      "properties": {
        "name": "TP Uygur Öksüzler Petrol",
        "id": 238,
        "icon": "stationIcon",
        "address": "Uygur Köyü, Amasya, Amasya 05220"
      },
      "geometry": { "type": "Point", "coordinates": [35.997339, 40.565169] }
    },
    {
      "type": "Feature",
      "properties": {
        "name": "Hitit Park Çorum",
        "id": 239,
        "icon": "stationIcon",
        "address": "Hitit Park Leblebi Sarayı, Çiftlikler Mahallesi, Osmancik, Çorum 19502"
      },
      "geometry": { "type": "Point", "coordinates": [34.896167, 40.961915] }
    },
    {
      "type": "Feature",
      "properties": {
        "name": "TP Kargı Çelikler Petrol",
        "id": 240,
        "icon": "stationIcon",
        "address": "Çelikler Çeltik Fabrikasi, Kargi, Çorum 19900"
      },
      "geometry": { "type": "Point", "coordinates": [34.461321, 41.134802] }
    },
    {
      "type": "Feature",
      "properties": {
        "name": "Hotel Grand Astra",
        "id": 241,
        "icon": "stationIcon",
        "address": "Bartın-Zonguldak Yolu, 74100, Bartin, Bartın"
      },
      "geometry": { "type": "Point", "coordinates": [32.323021, 41.615019] }
    },
    {
      "type": "Feature",
      "properties": {
        "name": "Grand Astra Resort Hotel",
        "id": 242,
        "icon": "stationIcon",
        "address": "Karaca Kuaför, Kutlubey tabaklar köyü, Bartin, Bartın 74110"
      },
      "geometry": { "type": "Point", "coordinates": [32.323067, 41.573007] }
    },
    {
      "type": "Feature",
      "properties": {
        "name": "Hafızlar Otomotiv Niğde",
        "id": 243,
        "icon": "stationIcon",
        "address": "42340, Eregli, Konya"
      },
      "geometry": { "type": "Point", "coordinates": [34.02622, 37.964158] }
    },
    {
      "type": "Feature",
      "properties": {
        "name": "Mersin Ramada Otel",
        "id": 244,
        "icon": "stationIcon",
        "address": "KANAL68 TÜRKİYE TELEVİZYONU, Mersin, Mersin 33090"
      },
      "geometry": { "type": "Point", "coordinates": [34.614946, 36.804812] }
    },
    {
      "type": "Feature",
      "properties": {
        "name": "Ramada Otel Kahramanmaraş",
        "id": 245,
        "icon": "stationIcon",
        "address": "Kalsedon Bar, Kahramanmaras, Kahramanmaraş 46050"
      },
      "geometry": { "type": "Point", "coordinates": [36.820953, 37.600274] }
    },
    {
      "type": "Feature",
      "properties": {
        "name": "TP Çağpet Petrol",
        "id": 246,
        "icon": "stationIcon",
        "address": "Aktoprak Euroil, Kahramanmaraş Yolu üzeri 14.km, Aktoprak, Gaziantep 27630"
      },
      "geometry": { "type": "Point", "coordinates": [37.27589, 37.181547] }
    },
    {
      "type": "Feature",
      "properties": {
        "name": "TP Zorbey Petrol",
        "id": 247,
        "icon": "stationIcon",
        "address": "Settar'ın Petrolü, Kilis, Kilis 79002"
      },
      "geometry": { "type": "Point", "coordinates": [37.19366, 36.709986] }
    },
    {
      "type": "Feature",
      "properties": {
        "name": "Hasbayram Petrol",
        "id": 248,
        "icon": "stationIcon",
        "address": "TÜVTÜRK Araç Muayene İstasyonu, Şanlıurfa-Mardin Karayolu 12. Km., Oğulbey Köyü, Sanliurfa, Şanlıurfa 63050"
      },
      "geometry": { "type": "Point", "coordinates": [38.902818, 37.160542] }
    },
    {
      "type": "Feature",
      "properties": {
        "name": "TG Akaryakıt Adıyaman",
        "id": 249,
        "icon": "stationIcon",
        "address": "Hisni Mansur Caddesi, 02200, Adiyaman, Adıyaman"
      },
      "geometry": { "type": "Point", "coordinates": [38.271652, 37.774224] }
    },
    {
      "type": "Feature",
      "properties": {
        "name": "TP Dostlar Petrol ",
        "id": 250,
        "icon": "stationIcon",
        "address": "Dostlar Akaryakıt İstasyonu, Gölbaşı karayolu üzeri 5.km Adıyaman, Adiyaman, Adıyaman 02010"
      },
      "geometry": { "type": "Point", "coordinates": [38.209419, 37.730994] }
    },
    {
      "type": "Feature",
      "properties": {
        "name": "TP Dostlar Petrol Şambayat",
        "id": 251,
        "icon": "stationIcon",
        "address": "Adıyaman-Gölbaşı Yolu, 02340, Sambayat, Adıyaman"
      },
      "geometry": { "type": "Point", "coordinates": [38.047853, 37.685827] }
    },
    {
      "type": "Feature",
      "properties": {
        "name": "TP Erler Petrol Battalgazi",
        "id": 252,
        "icon": "stationIcon",
        "address": "BP, Çöşnük Mahallesi, Malatya, Malatya 44320"
      },
      "geometry": { "type": "Point", "coordinates": [38.349608, 38.349844] }
    },
    {
      "type": "Feature",
      "properties": {
        "name": "TP Varol Petrol",
        "id": 253,
        "icon": "stationIcon",
        "address": "D300, 12002, Bingöl, Bingöl"
      },
      "geometry": { "type": "Point", "coordinates": [40.50773, 38.896886] }
    },
    {
      "type": "Feature",
      "properties": {
        "name": "Akra Barut Hotel DC",
        "id": 254,
        "icon": "stationIcon",
        "address": "Akra Barut D&Z Sun Kuaför, Şirinyalı Mah. Lara Cad. No:24 Akra Otel içi Akrasan kuaför, Muratpasa, Antalya 07160"
      },
      "geometry": { "type": "Point", "coordinates": [30.726713, 36.86409] }
    },
    {
      "type": "Feature",
      "properties": {
        "name": "İzelman Konak Katlı Otopark",
        "id": 255,
        "icon": "stationIcon",
        "address": "Milli Kütüphane Caddesi, 35250, Kemeralti, İzmir"
      },
      "geometry": { "type": "Point", "coordinates": [27.128691, 38.415908] }
    },
    {
      "type": "Feature",
      "properties": {
        "name": "Grand Berti Otel",
        "id": 256,
        "icon": "stationIcon",
        "address": "Grand Berti Otel, Muş Yolu Üzeri Havaalanı Kavşağı Altındiş Petrol Yanı, Bingöl, Bingöl 12002"
      },
      "geometry": { "type": "Point", "coordinates": [40.526238, 38.901901] }
    },
    {
      "type": "Feature",
      "properties": {
        "name": "Vitalia Narlıdere",
        "id": 257,
        "icon": "stationIcon",
        "address": "Dağdelen Sokak, 35320, Narlidere, İzmir"
      },
      "geometry": { "type": "Point", "coordinates": [27.012711, 38.387028] }
    },
    {
      "type": "Feature",
      "properties": {
        "name": "İzelman Hatay Pazaryeri Katlı Otopark",
        "id": 258,
        "icon": "stationIcon",
        "address": "Hatay Katli Otopark, Izmir, İzmir 35280"
      },
      "geometry": { "type": "Point", "coordinates": [27.109908, 38.403455] }
    },
    {
      "type": "Feature",
      "properties": {
        "name": "İzelman Hakimevleri Katlı Otoparkı",
        "id": 259,
        "icon": "stationIcon",
        "address": "Hatay Nokta Katlı Otopark İnşaatı, Izmir, İzmir 35280"
      },
      "geometry": { "type": "Point", "coordinates": [27.097535, 38.402706] }
    },
    {
      "type": "Feature",
      "properties": {
        "name": "İzelman Kasaplar Yeraltı Otoparkı",
        "id": 260,
        "icon": "stationIcon",
        "address": "Çıtır Çıtır Kokoreç, Buca, Izmir, İzmir 35370"
      },
      "geometry": { "type": "Point", "coordinates": [27.174268, 38.3881] }
    },
    {
      "type": "Feature",
      "properties": {
        "name": "İzelman Bahriye Üçok Yolaltı Otoparkı",
        "id": 261,
        "icon": "stationIcon",
        "address": "Seç Tart Restaurant, No: 9/4 Doç. Dr. Bahriye Üçok Bulvarı, Izmir, İzmir 35580"
      },
      "geometry": { "type": "Point", "coordinates": [27.114452, 38.46055] }
    },
    {
      "type": "Feature",
      "properties": {
        "name": "İzelman Alaybey Katlı Otopark",
        "id": 262,
        "icon": "stationIcon",
        "address": "1690/1. Sokak, 35600, Izmir, İzmir"
      },
      "geometry": { "type": "Point", "coordinates": [27.120166, 38.460743] }
    },
    {
      "type": "Feature",
      "properties": {
        "name": "İzelman Pelikan Nikah Sarayı Açık Otoparkı",
        "id": 263,
        "icon": "stationIcon",
        "address": "Yalı Bulvarı, 35580, Izmir, İzmir"
      },
      "geometry": { "type": "Point", "coordinates": [27.113289, 38.450433] }
    },
    {
      "type": "Feature",
      "properties": {
        "name": "İzelman Bostanlı Katlı Otoparkı",
        "id": 264,
        "icon": "stationIcon",
        "address": "Migros Otopark Yolu, 35590, Izmir, İzmir"
      },
      "geometry": { "type": "Point", "coordinates": [27.100254, 38.458285] }
    },
    {
      "type": "Feature",
      "properties": {
        "name": "Ramada By Wyndham Tire",
        "id": 265,
        "icon": "stationIcon",
        "address": "Teira Blue Hotel Şantiye Alanı, Tire, İzmir 35900"
      },
      "geometry": { "type": "Point", "coordinates": [27.715889, 38.102059] }
    },
    {
      "type": "Feature",
      "properties": {
        "name": "Piyalepaşa İstanbul",
        "id": 266,
        "icon": "stationIcon",
        "address": "5 Piyalepaşa Bulvarı, 34440, Beyoğlu"
      },
      "geometry": { "type": "Point", "coordinates": [28.967556, 41.04242] }
    },
    {
      "type": "Feature",
      "properties": {
        "name": "Zorluteks Lüleburgaz DC",
        "id": 267,
        "icon": "stationIcon",
        "address": "Zorlu Tekstil, 39780, Tekirdag, Kırklareli"
      },
      "geometry": { "type": "Point", "coordinates": [27.589358, 41.281635] }
    },
    {
      "type": "Feature",
      "properties": {
        "name": "Oksijen O122 Muratlı İzmir Yönü DC",
        "id": 268,
        "icon": "stationIcon",
        "address": "İstanbul İzmir Otoyolu, 16700, Karacabey"
      },
      "geometry": { "type": "Point", "coordinates": [28.598191, 40.273502] }
    },
    {
      "type": "Feature",
      "properties": {
        "name": "Oksijen O122 Muratlı İstanbul Yönü DC",
        "id": 269,
        "icon": "stationIcon",
        "address": "İstanbul İzmir Otoyolu, 16700, Karacabey"
      },
      "geometry": { "type": "Point", "coordinates": [28.602021, 40.272397] }
    },
    {
      "type": "Feature",
      "properties": {
        "name": "Oksijen O375 İstanbul Yönü DC",
        "id": 270,
        "icon": "stationIcon",
        "address": "Opet, Oksijen O375, Karaoglanli, Manisa 45070"
      },
      "geometry": { "type": "Point", "coordinates": [27.575972, 38.487599] }
    },
    {
      "type": "Feature",
      "properties": {
        "name": "TP Karapınar Nakipoğlu Petrol",
        "id": 271,
        "icon": "stationIcon",
        "address": "42-42, 42400, Karapinar, Konya"
      },
      "geometry": { "type": "Point", "coordinates": [33.552056, 37.72858] }
    },
    {
      "type": "Feature",
      "properties": {
        "name": "Büyük Osmaniye Oteli",
        "id": 272,
        "icon": "stationIcon",
        "address": "Eczane Selin Ateş, D 400 Karayaolu üzeri (Opet petrol içi), Osmaniye, Osmaniye 80080"
      },
      "geometry": { "type": "Point", "coordinates": [36.189579, 37.055868] }
    },
    {
      "type": "Feature",
      "properties": {
        "name": "TP Kovancılar Karamazı Petrol",
        "id": 273,
        "icon": "stationIcon",
        "address": "Elazığ-Bingöl Yolu, 23850, Kovancilar, Elazığ"
      },
      "geometry": { "type": "Point", "coordinates": [39.848683, 38.709504] }
    },
    {
      "type": "Feature",
      "properties": {
        "name": "Tevadi Bosch Araç Servisi",
        "id": 274,
        "icon": "stationIcon",
        "address": "Lastik Park, 2.sanayi sitesi 38 sk no :, Diyarbakir, Diyarbakır 21100"
      },
      "geometry": { "type": "Point", "coordinates": [40.19742, 37.946371] }
    },
    {
      "type": "Feature",
      "properties": {
        "name": "TP Ramanlılar Petrol",
        "id": 275,
        "icon": "stationIcon",
        "address": "215 Özgürlük Bulvarı, 72070, Batman, Batman"
      },
      "geometry": { "type": "Point", "coordinates": [41.139272, 37.885124] }
    },
    {
      "type": "Feature",
      "properties": {
        "name": "TP FSM Petrol",
        "id": 276,
        "icon": "stationIcon",
        "address": "Ferit Petrol, Çevre Yolu Üzeri, Batman, Batman 72070"
      },
      "geometry": { "type": "Point", "coordinates": [41.163921, 37.86868] }
    },
    {
      "type": "Feature",
      "properties": {
        "name": "Mardin Matiat Otel ",
        "id": 277,
        "icon": "stationIcon",
        "address": "Matiat Hotel Havuz/Spa/Sauna, Midyat, Mardin 47500"
      },
      "geometry": { "type": "Point", "coordinates": [41.306709, 37.435733] }
    },
    {
      "type": "Feature",
      "properties": {
        "name": "Ankara Esenboğa Havalimanı Dış Hatlar",
        "id": 278,
        "icon": "stationIcon",
        "address": "ATU Duty Free Diplomatic Store, Esenboga AirPort, Akyurt, Ankara 06750"
      },
      "geometry": { "type": "Point", "coordinates": [32.993342, 40.114268] }
    },
    {
      "type": "Feature",
      "properties": {
        "name": "Ankara Esenboğa Havalimanı İç Hatlar",
        "id": 279,
        "icon": "stationIcon",
        "address": "Europcar, Ankara Esenboğa Havaalanı, Akyurt, Ankara 06750"
      },
      "geometry": { "type": "Point", "coordinates": [32.992406, 40.113982] }
    },
    {
      "type": "Feature",
      "properties": {
        "name": "TP Miroğlu Petrol & Otel",
        "id": 280,
        "icon": "stationIcon",
        "address": "Miroğlu Otel, Idil, Şırnak 73300"
      },
      "geometry": { "type": "Point", "coordinates": [41.875523, 37.332447] }
    },
    {
      "type": "Feature",
      "properties": {
        "name": "TP Haydaroğulları Petrol",
        "id": 281,
        "icon": "stationIcon",
        "address": "Haydaroğulları Ulus Nak İnşaat San Güm Ltd Şti, Silopi Mevkii 2 Km, Cizre, Şırnak 73200"
      },
      "geometry": { "type": "Point", "coordinates": [42.2055466, 37.3307425] }
    },
    {
      "type": "Feature",
      "properties": {
        "name": "TP Uğur Petrol",
        "id": 282,
        "icon": "stationIcon",
        "address": "D370, 56100, Siirt, Siirt"
      },
      "geometry": { "type": "Point", "coordinates": [41.932324, 37.914001] }
    },
    {
      "type": "Feature",
      "properties": {
        "name": "TP Adabağlı Petrol",
        "id": 283,
        "icon": "stationIcon",
        "address": "Adabağli Petrol, Rahva Bitlis Tatvan Yolu Üzeri, Tatvan, Bitlis 13202"
      },
      "geometry": { "type": "Point", "coordinates": [42.220542, 38.502996] }
    },
    {
      "type": "Feature",
      "properties": {
        "name": "Kral Bosch Araç Servisi",
        "id": 284,
        "icon": "stationIcon",
        "address": "DEMİRLER MAKİNA, Sanayi Sitesi 2/b Blok No:12 Muş, Mus, Muş 49001"
      },
      "geometry": { "type": "Point", "coordinates": [41.533259, 38.740272] }
    },
    {
      "type": "Feature",
      "properties": {
        "name": "TP Dağkar Petrol",
        "id": 285,
        "icon": "stationIcon",
        "address": "Hanoğlu Et Mangal Ocak Başı Restorant, Tatvan, Bitlis 13200"
      },
      "geometry": { "type": "Point", "coordinates": [42.28005, 38.506471] }
    },
    {
      "type": "Feature",
      "properties": {
        "name": "TP Menzil Petrol",
        "id": 286,
        "icon": "stationIcon",
        "address": "Bahçevan Düğün Salonu, Van, Van 65300"
      },
      "geometry": { "type": "Point", "coordinates": [43.3562193, 38.4776112] }
    },
    {
      "type": "Feature",
      "properties": {
        "name": "Bendis AVM",
        "id": 287,
        "icon": "stationIcon",
        "address": "Pierre Cardin, Bendis, Kesan, Edirne 22800"
      },
      "geometry": { "type": "Point", "coordinates": [26.625736, 40.837768] }
    },
    {
      "type": "Feature",
      "properties": {
        "name": "TP İbrahim Kaya Petrol",
        "id": 288,
        "icon": "stationIcon",
        "address": "Shell Kaya Petrol, Van, Van 65100"
      },
      "geometry": { "type": "Point", "coordinates": [43.386771, 38.505998] }
    },
    {
      "type": "Feature",
      "properties": {
        "name": "Kadoil Özek Petrol",
        "id": 289,
        "icon": "stationIcon",
        "address": "Hakkari İl Emniyet Müdürlüğü, Hakkari, Hakkâri 30100"
      },
      "geometry": { "type": "Point", "coordinates": [43.743368, 37.570265] }
    },
    {
      "type": "Feature",
      "properties": {
        "name": "Grand Cenas Hotel & Petrol",
        "id": 290,
        "icon": "stationIcon",
        "address": "Hotel Grand Cenas Fitness&havuz&spa&hamam, Semerkant, Agri, Ağrı 04200"
      },
      "geometry": { "type": "Point", "coordinates": [43.020007, 39.713727] }
    },
    {
      "type": "Feature",
      "properties": {
        "name": "Doğubayazıt AVM ",
        "id": 291,
        "icon": "stationIcon",
        "address": "Doğubayazıt AVM, Çiftepınar Mah. Rıfkı Başkaya Cad. No:17, Dogubeyazit, Ağrı 04400"
      },
      "geometry": { "type": "Point", "coordinates": [44.082593, 39.547675] }
    },
    {
      "type": "Feature",
      "properties": {
        "name": "Lukoil İsmail Demirel Petrol",
        "id": 292,
        "icon": "stationIcon",
        "address": "Bizim Market, Igdir, Iğdır 76103"
      },
      "geometry": { "type": "Point", "coordinates": [44.056814, 39.933114] }
    },
    {
      "type": "Feature",
      "properties": {
        "name": "Winter City Hotel",
        "id": 293,
        "icon": "stationIcon",
        "address": "Ali Gaffar Okkan Blv., 36100, Kars, Kars"
      },
      "geometry": { "type": "Point", "coordinates": [43.099037, 40.581435] }
    },
    {
      "type": "Feature",
      "properties": {
        "name": "Aytemiz Özaydın Petrol",
        "id": 294,
        "icon": "stationIcon",
        "address": "Sanguoğulları Petrol, Kars, Kars 36100"
      },
      "geometry": { "type": "Point", "coordinates": [43.088492, 40.572398] }
    },
    {
      "type": "Feature",
      "properties": {
        "name": "Lukoil Aslankaya Petrol",
        "id": 295,
        "icon": "stationIcon",
        "address": "Saraylı Cafe, Vali Yolu, Igdir, Iğdır 76103"
      },
      "geometry": { "type": "Point", "coordinates": [44.061752, 39.904051] }
    },
    {
      "type": "Feature",
      "properties": {
        "name": "Villa Da Butik Otel",
        "id": 296,
        "icon": "stationIcon",
        "address": "Kazım Karabekir Caddesi, 08010, Artvin, Artvin"
      },
      "geometry": { "type": "Point", "coordinates": [41.826956, 41.188183] }
    },
    {
      "type": "Feature",
      "properties": {
        "name": "Kastamonu Belediyesi",
        "id": 297,
        "icon": "stationIcon",
        "address": "Kastamonu-Karabük Yolu, 37200, Kastamonu, Kastamonu"
      },
      "geometry": { "type": "Point", "coordinates": [33.766409, 41.363416] }
    },
    {
      "type": "Feature",
      "properties": {
        "name": "Dergiz Tatil Köyü",
        "id": 298,
        "icon": "stationIcon",
        "address": "D010, 08100, Salkimli, Artvin, Artvin"
      },
      "geometry": { "type": "Point", "coordinates": [41.87444, 41.19445] }
    },
    {
      "type": "Feature",
      "properties": {
        "name": "Tech Bosch Araç Servisi",
        "id": 299,
        "icon": "stationIcon",
        "address": "Ahmetbesim Uyal Caddesi, 35430, Urla, İzmir"
      },
      "geometry": { "type": "Point", "coordinates": [26.755771, 38.318952] }
    },
    {
      "type": "Feature",
      "properties": {
        "name": "Bozkurt Bosch Araç Servisi",
        "id": 300,
        "icon": "stationIcon",
        "address": "ARDA OTO ELEKTRİK YEDEK PARÇA VE AKSESUAR SATIŞ, 7419/12 SOKAK NO:69, Izmir, İzmir 35060"
      },
      "geometry": { "type": "Point", "coordinates": [27.281081, 38.441475] }
    },
    {
      "type": "Feature",
      "properties": {
        "name": "Babillon Hotel & SPA",
        "id": 301,
        "icon": "stationIcon",
        "address": "Ehli Keyf Kafeterya & Nargile, İyidere Sahili (Babillon & Spa & Restorant), Iyidere, Rize 53600"
      },
      "geometry": { "type": "Point", "coordinates": [40.359627, 41.012787] }
    },
    {
      "type": "Feature",
      "properties": {
        "name": "Erzurum Şehirlerarası Otobüs Terminali",
        "id": 302,
        "icon": "stationIcon",
        "address": "Erzurum ÇİFTLİK ATLI SPOR KULÜBÜ, Erzurum, Erzurum, Erzurum 25050"
      },
      "geometry": { "type": "Point", "coordinates": [41.219655, 39.961445] }
    },
    {
      "type": "Feature",
      "properties": {
        "name": "Palerium AVM",
        "id": 303,
        "icon": "stationIcon",
        "address": "Burger King, Palerium, Erzurum, Erzurum 25100"
      },
      "geometry": { "type": "Point", "coordinates": [41.269431, 39.905372] }
    },
    {
      "type": "Feature",
      "properties": {
        "name": "Bayburt Center",
        "id": 304,
        "icon": "stationIcon",
        "address": "Bayburt-Erzurum Yolu, 69010, Bayburt, Bayburt"
      },
      "geometry": { "type": "Point", "coordinates": [40.227025, 40.252379] }
    },
    {
      "type": "Feature",
      "properties": {
        "name": "Adnan Menderes Havalimanı Dış Hatlar",
        "id": 305,
        "icon": "stationIcon",
        "address": "Vodafone Dış Hatlar (-Gold Phone-), Adnan Menderes Havalimanı, Gaziemir, İzmir 35410"
      },
      "geometry": { "type": "Point", "coordinates": [27.145479, 38.294691] }
    },
    {
      "type": "Feature",
      "properties": {
        "name": "Adnan Menderes Havalimanı İç Hatlar",
        "id": 306,
        "icon": "stationIcon",
        "address": "Kantin Cafe, İzmir Adnan Menderes Havalimanı, Gaziemir, İzmir 35410"
      },
      "geometry": { "type": "Point", "coordinates": [27.147258, 38.291937] }
    },
    {
      "type": "Feature",
      "properties": {
        "name": "Alpet Aktaşlar Petrol",
        "id": 307,
        "icon": "stationIcon",
        "address": "AKTAŞ PETROL, Ardahan, Ardahan 75100"
      },
      "geometry": { "type": "Point", "coordinates": [42.683386, 41.125389] }
    },
    {
      "type": "Feature",
      "properties": {
        "name": "Korkmaz Petrol Tunceli",
        "id": 308,
        "icon": "stationIcon",
        "address": "D885, 62100, Tunceli, Tunceli"
      },
      "geometry": { "type": "Point", "coordinates": [39.5546208, 39.1036778] }
    },
    {
      "type": "Feature",
      "properties": {
        "name": "Doğa Turistik Dinlenme Tesisleri",
        "id": 309,
        "icon": "stationIcon",
        "address": "Doğa Turistik Otel, Ovacık, Ovacik, Tunceli 62900"
      },
      "geometry": { "type": "Point", "coordinates": [39.214867, 39.357336] }
    },
    {
      "type": "Feature",
      "properties": {
        "name": "67 Burda AVM",
        "id": 310,
        "icon": "stationIcon",
        "address": "LC Waikiki, TERAKKİ MAH. MİLLİ EGEMENLİK CAD.KOZLU YOLU ÜZERİ Esas 67 Burda A.V.M. NO:14/29, Zonguldak, Zonguldak 67100"
      },
      "geometry": { "type": "Point", "coordinates": [31.763811, 41.454849] }
    },
    {
      "type": "Feature",
      "properties": {
        "name": "Teos Marina ",
        "id": 311,
        "icon": "stationIcon",
        "address": "Sığacık Teos Marina, Seferihisar, İzmir 35460"
      },
      "geometry": { "type": "Point", "coordinates": [26.783377, 38.190627] }
    },
    {
      "type": "Feature",
      "properties": {
        "name": "Büyük Erzincan Oteli",
        "id": 312,
        "icon": "stationIcon",
        "address": "Büyük Erzincan Oteli, Erzurum Karayolu Üzeri Tedaş Karşısı, Erzincan, Erzincan 24100"
      },
      "geometry": { "type": "Point", "coordinates": [39.518131, 39.740836] }
    },
    {
      "type": "Feature",
      "properties": {
        "name": "İzelman Ahmed Adnan Saygun SM",
        "id": 313,
        "icon": "stationIcon",
        "address": "Salvador Dali Sergisi, Adnan Saygun Sanat Merkezi, Izmir, İzmir 35290"
      },
      "geometry": { "type": "Point", "coordinates": [27.078254, 38.397439] }
    },
    {
      "type": "Feature",
      "properties": {
        "name": "Ramada by Wyndham Gümüşhane",
        "id": 314,
        "icon": "stationIcon",
        "address": "Grand Araz Hotel, Gümüshane, Gümüşhane 29010"
      },
      "geometry": { "type": "Point", "coordinates": [39.462854, 40.465559] }
    },
    {
      "type": "Feature",
      "properties": {
        "name": "Dedeman Tokat Hotel",
        "id": 315,
        "icon": "stationIcon",
        "address": "CINGILLI OTOMOTİV, Karşıyaka Mah Orhangazi Cad. 4.Sokak Dedeman Otel Yanı, Tokat, Tokat 60200"
      },
      "geometry": { "type": "Point", "coordinates": [36.544264, 40.337727] }
    },
    {
      "type": "Feature",
      "properties": {
        "name": "Grand Alin Hotel",
        "id": 316,
        "icon": "stationIcon",
        "address": "Grand Ballıca Hotel Havuz, Tokat, Tokat 60100"
      },
      "geometry": { "type": "Point", "coordinates": [36.527754, 40.333361] }
    },
    {
      "type": "Feature",
      "properties": {
        "name": "Petro Park Petrol",
        "id": 317,
        "icon": "stationIcon",
        "address": "Turhal TOHAT YOLU, Turhal, Tokat 60300"
      },
      "geometry": { "type": "Point", "coordinates": [36.098943, 40.369076] }
    },
    {
      "type": "Feature",
      "properties": {
        "name": "Milas-Bodrum Havalanı İç Hatlar",
        "id": 318,
        "icon": "stationIcon",
        "address": "GarentaDAY - Bodrum Havalimanı İç Hatlar Araç Kiralama, Bodrum Milas Havalimanı, Milas, Muğla 48200"
      },
      "geometry": { "type": "Point", "coordinates": [27.672381, 37.242696] }
    },
    {
      "type": "Feature",
      "properties": {
        "name": "Milas-Bodrum Havaalanı Dış Hatlar",
        "id": 319,
        "icon": "stationIcon",
        "address": "Milas-Bodrum Havaalanı Staff Entrance, Milas, Muğla 48200"
      },
      "geometry": { "type": "Point", "coordinates": [27.677431, 37.241748] }
    },
    {
      "type": "Feature",
      "properties": {
        "name": "Tasigo Hotel Eskişehir",
        "id": 320,
        "icon": "stationIcon",
        "address": "People Restaurant & Bar, Tasigo Hotels & Resorts, Eskisehir, Eskişehir 26030"
      },
      "geometry": { "type": "Point", "coordinates": [30.523559, 39.758604] }
    },
    {
      "type": "Feature",
      "properties": {
        "name": "Kaya Otomotiv Bosch Araç Servisi",
        "id": 321,
        "icon": "stationIcon",
        "address": "Kaya Otomotiv, Torbali, İzmir 35860"
      },
      "geometry": { "type": "Point", "coordinates": [27.354517, 38.181266] }
    },